{"results":[{"sno":"1","district":"ADILABAD","mandal":"Adilabad","village":"Adilabad","temp_id":"1001","long_gis":"78.5247","lat_gis":"19.6683","gwl":"14.15","season":"Pre-monsoon 2020","ph":"7.8","ec":"1671","tds":"1069.44","co3":"0","hco3":"470","cl":"230","f":"0.51","no3":"3.422409091","so4":"31.5","na":"154","k":"13","ca":"72","mg":"77.792","th":"499.8684211","sar":"2.994780759","classification":"C3S1","rsc__meq___l":"-0.597368421","classification1":"P.S."},{"sno":"2","district":"ADILABAD","mandal":"Bazarhatnur","village":"Bazarhatnur","temp_id":"1002","long_gis":"78.350833","lat_gis":"19.458888","gwl":"9.35","season":"Pre-monsoon 2020","ph":"7.95","ec":"545","tds":"348.8","co3":"0","hco3":"180","cl":"80","f":"1.08","no3":"4.227681818","so4":"13","na":"94","k":"12","ca":"16","mg":"14.586","th":"99.97532895","sar":"4.087460763","classification":"C2S1","rsc__meq___l":"1.600493421","classification1":"MR"},{"sno":"3","district":"ADILABAD","mandal":"Gudihatnoor","village":"Gudihatnoor","temp_id":"1007","long_gis":"78.512222","lat_gis":"19.525555","gwl":"17.5","season":"Pre-monsoon 2020","ph":"8.12","ec":"738","tds":"472.32","co3":"0","hco3":"220","cl":"30","f":"0.45","no3":"28.38586364","so4":"9.5","na":"22","k":"1","ca":"40","mg":"38.896","th":"259.9342105","sar":"0.593284666","classification":"C2S1","rsc__meq___l":"-0.798684211","classification1":"P.S."},{"sno":"4","district":"ADILABAD","mandal":"Jainath","village":"Jainath","temp_id":"1009","long_gis":"78.64","lat_gis":"19.730555","gwl":"5.3","season":"Pre-monsoon 2020","ph":"8.05","ec":"1154","tds":"738.56","co3":"0","hco3":"300","cl":"100","f":"0.69","no3":"140.9227273","so4":"14.75","na":"81","k":"3","ca":"56","mg":"68.068","th":"419.8848684","sar":"1.718668316","classification":"C3S1","rsc__meq___l":"-2.397697368","classification1":"P.S."},{"sno":"5","district":"ADILABAD","mandal":"Narnoor","village":"Narnoor","temp_id":"1010","long_gis":"78.852654","lat_gis":"19.495665","gwl":"4.5","season":"Pre-monsoon 2020","ph":"7.17","ec":"1042","tds":"666.88","co3":"0","hco3":"370","cl":"30","f":"0.72","no3":"163.0677273","so4":"10.25","na":"39","k":"4","ca":"96","mg":"63.206","th":"499.8930921","sar":"0.758399789","classification":"C3S1","rsc__meq___l":"-2.597861842","classification1":"P.S."},{"sno":"6","district":"ADILABAD","mandal":"Neradigonda","village":"Neradigonda","temp_id":"1011","long_gis":"78.41216","lat_gis":"19.29375","gwl":"9.9","season":"Pre-monsoon 2020","ph":"8.09","ec":"1063","tds":"680.32","co3":"0","hco3":"300","cl":"100","f":"0.56","no3":"62.40863636","so4":"14.5","na":"65","k":"14","ca":"64","mg":"53.482","th":"379.9095395","sar":"1.44992461","classification":"C3S1","rsc__meq___l":"-1.598190789","classification1":"P.S."},{"sno":"7","district":"ADILABAD","mandal":"Talamadugu","village":"Talamadugu","temp_id":"1013","long_gis":"78.3969","lat_gis":"19.6334","gwl":"8.1","season":"Pre-monsoon 2020","ph":"7.94","ec":"788","tds":"504.32","co3":"0","hco3":"310","cl":"40","f":"0.44","no3":"42.0755","so4":"10.5","na":"59","k":"4","ca":"40","mg":"43.758","th":"279.9259868","sar":"1.53321326","classification":"C3S1","rsc__meq___l":"0.601480263","classification1":"P.S."},{"sno":"8","district":"ADILABAD","mandal":"Tamsi","village":"Tamsi","temp_id":"1014","long_gis":"78.4268","lat_gis":"19.6811","gwl":"6.3","season":"Pre-monsoon 2020","ph":"8.32","ec":"811","tds":"519.04","co3":"20","hco3":"200","cl":"110","f":"0.73","no3":"11.47513636","so4":"16","na":"144","k":"1","ca":"16","mg":"14.586","th":"99.97532895","sar":"6.261642019","classification":"C3S1","rsc__meq___l":"2.400493421","classification1":"MR"},{"sno":"9","district":"ADILABAD","mandal":"Utnoor","village":"Utnoor","temp_id":"1015","long_gis":"78.7685","lat_gis":"19.3789","gwl":"6.55","season":"Pre-monsoon 2020","ph":"7.99","ec":"422","tds":"270.08","co3":"0","hco3":"160","cl":"30","f":"0.45","no3":"13.48831818","so4":"8.25","na":"41","k":"2","ca":"24","mg":"19.448","th":"139.9671053","sar":"1.50675635","classification":"C2S1","rsc__meq___l":"0.400657895","classification1":"P.S."},{"sno":"10","district":"BHADRADRI","mandal":"Annapureddypalli","village":"Annapureddypalli","temp_id":"1021","long_gis":"80.826104","lat_gis":"17.354519","gwl":"17.3","season":"Pre-monsoon 2020","ph":"8.28","ec":"250","tds":"160","co3":"0","hco3":"90","cl":"10","f":"0.147","no3":"5.3148","so4":"6","na":"6.4","k":"1.77","ca":"24","mg":"9.724","th":"99.98355263","sar":"0.278283756","classification":"C2S1","rsc__meq___l":"-0.199671053","classification1":"P.S."},{"sno":"11","district":"BHADRADRI","mandal":"Ashwapuram","village":"Aswapuram","temp_id":"1022","long_gis":"80.809241","lat_gis":"17.841678","gwl":"8.56","season":"Pre-monsoon 2020","ph":"8.71","ec":"746","tds":"477.44","co3":"30","hco3":"120","cl":"100","f":"0.415","no3":"61.5631","so4":"25","na":"61.16","k":"12.27","ca":"56","mg":"19.448","th":"219.9671053","sar":"1.792919418","classification":"C2S1","rsc__meq___l":"-1.399342105","classification1":"P.S."},{"sno":"12","district":"BHADRADRI","mandal":"Bhadrachalam","village":"Bhadrachalam","temp_id":"1024","long_gis":"80.900922","lat_gis":"17.666775","gwl":"10.59","season":"Pre-monsoon 2020","ph":"9.32","ec":"1618","tds":"1035.52","co3":"20","hco3":"570","cl":"120","f":"2.86","no3":"2.564391","so4":"20","na":"257.6","k":"3.2","ca":"8","mg":"53.482","th":"239.9095395","sar":"7.230931779","classification":"C3S2","rsc__meq___l":"7.001809211","classification1":"U.S."},{"sno":"13","district":"BHADRADRI","mandal":"Burgampad","village":"M.Banjara","temp_id":"1025","long_gis":"80.7911","lat_gis":"17.6447","gwl":"13.48","season":"Pre-monsoon 2020","ph":"8.48","ec":"1838","tds":"1176.32","co3":"10","hco3":"470","cl":"240","f":"1.07","no3":"72.41415","so4":"31","na":"295","k":"10.6","ca":"16","mg":"58.344","th":"279.9013158","sar":"7.666404145","classification":"C3S2","rsc__meq___l":"4.001973684","classification1":"U.S."},{"sno":"14","district":"BHADRADRI","mandal":"Chandrugonda","village":"Ravikampadu","temp_id":"1026","long_gis":"80.6106","lat_gis":"17.3986","gwl":"15.97","season":"Pre-monsoon 2020","ph":"8.43","ec":"1488","tds":"952.32","co3":"20","hco3":"380","cl":"140","f":"0.905","no3":"109.3963","so4":"28","na":"97.49","k":"5.53","ca":"8","mg":"121.55","th":"519.7944079","sar":"1.85915857","classification":"C3S1","rsc__meq___l":"-2.395888158","classification1":"P.S."},{"sno":"16","district":"BHADRADRI","mandal":"Gundala","village":"Kanchanapalli","temp_id":"3016","long_gis":"80.42","lat_gis":"17.79","gwl":"4.29","season":"Pre-monsoon 2020","ph":"8.59","ec":"367","tds":"234.88","co3":"20","hco3":"120","cl":"20","f":"0.594","no3":"4.145544","so4":"8","na":"17.58","k":"3.54","ca":"24","mg":"19.448","th":"139.9671053","sar":"0.646067723","classification":"C2S1","rsc__meq___l":"0.000657895","classification1":"P.S."},{"sno":"17","district":"BHADRADRI","mandal":"Julurpadu","village":"P. Narsapuram","temp_id":"3019","long_gis":"80.520318","lat_gis":"17.438169","gwl":"21.8","season":"Pre-monsoon 2020","ph":"8.73","ec":"4429","tds":"2834.56","co3":"20","hco3":"530","cl":"960","f":"0.898","no3":"326.90449","so4":"20","na":"535","k":"22","ca":"24","mg":"233.376","th":"1019.605263","sar":"7.284670486","classification":"C4S2","rsc__meq___l":"-9.392105263","classification1":"P.S."},{"sno":"18","district":"BHADRADRI","mandal":"Karakagudem","village":"Karakagudem","temp_id":"1033","long_gis":"80.568147","lat_gis":"18.034655","gwl":"6.02","season":"Pre-monsoon 2020","ph":"8.62","ec":"668","tds":"427.52","co3":"20","hco3":"210","cl":"60","f":"1.53","no3":"1.315413","so4":"10","na":"48","k":"22.15","ca":"40","mg":"24.31","th":"199.9588816","sar":"1.475852828","classification":"C2S1","rsc__meq___l":"0.600822368","classification1":"P.S."},{"sno":"19","district":"BHADRADRI","mandal":"Laxmidevipalli","village":"Laxmidevipalli","temp_id":"1035","long_gis":"80.619","lat_gis":"17.573","gwl":"9.89","season":"Pre-monsoon 2020","ph":"8.6","ec":"975","tds":"624","co3":"10","hco3":"180","cl":"140","f":"0.314","no3":"69.0924","so4":"29","na":"85.1","k":"15.93","ca":"80","mg":"19.448","th":"279.9671053","sar":"2.211302824","classification":"C3S1","rsc__meq___l":"-1.799342105","classification1":"P.S."},{"sno":"20","district":"BHADRADRI","mandal":"Manuguru","village":"Pagideru","temp_id":"3022","long_gis":"80.73","lat_gis":"17.97","gwl":"8.22","season":"Pre-monsoon 2020","ph":"8.27","ec":"709","tds":"453.76","co3":"0","hco3":"70","cl":"190","f":"0.115","no3":"10.27528","so4":"9","na":"64.42","k":"16.33","ca":"48","mg":"19.448","th":"199.9671053","sar":"1.980676754","classification":"C2S1","rsc__meq___l":"-2.599342105","classification1":"P.S."},{"sno":"21","district":"BHADRADRI","mandal":"Palwancha","village":"REGELLA","temp_id":"3029","long_gis":"80.58","lat_gis":"17.95","gwl":"6.26","season":"Pre-monsoon 2020","ph":"8.81","ec":"1145","tds":"732.8","co3":"20","hco3":"380","cl":"70","f":"0.696","no3":"51.513699","so4":"20","na":"54.17","k":"89.18","ca":"104","mg":"19.448","th":"339.9671053","sar":"1.277357761","classification":"C3S1","rsc__meq___l":"1.200657895","classification1":"P.S."},{"sno":"22","district":"BHADRADRI","mandal":"Tekulapalli","village":"Bethampudi","temp_id":"3034","long_gis":"80.45","lat_gis":"17.56","gwl":"7.3","season":"Pre-monsoon 2020","ph":"8.41","ec":"2360","tds":"1510.4","co3":"10","hco3":"120","cl":"420","f":"0.257","no3":"446.53178","so4":"58","na":"195.8","k":"3.5","ca":"120","mg":"102.102","th":"719.8273026","sar":"3.173004543","classification":"C4S1","rsc__meq___l":"-11.79654605","classification1":"P.S."},{"sno":"23","district":"BHADRADRI","mandal":"Tekulapalli","village":"Mutyalampadu","temp_id":"3035","long_gis":"80.5","lat_gis":"17.54","gwl":"7.01","season":"Pre-monsoon 2020","ph":"9.17","ec":"1244","tds":"796.16","co3":"30","hco3":"450","cl":"80","f":"1.53","no3":"40.627217","so4":"14","na":"174.1","k":"5.1","ca":"24","mg":"48.62","th":"259.9177632","sar":"4.695187656","classification":"C3S1","rsc__meq___l":"4.401644737","classification1":"U.S."},{"sno":"24","district":"BHADRADRI","mandal":"Yellandu","village":"Komararam","temp_id":"3036","long_gis":"80.32","lat_gis":"17.71","gwl":"7.56","season":"Pre-monsoon 2020","ph":"8.59","ec":"404","tds":"258.56","co3":"30","hco3":"110","cl":"20","f":"3.17","no3":"20.058941","so4":"8","na":"12","k":"12.35","ca":"32","mg":"19.448","th":"159.9671053","sar":"0.412513406","classification":"C2S1","rsc__meq___l":"-0.399342105","classification1":"P.S."},{"sno":"25","district":"BHUPALPALLY","mandal":"Ghanpur Mulug","village":"Chelpur(D)","temp_id":"3041","long_gis":"79.853503","lat_gis":"18.368545","gwl":"7.31","season":"Pre-monsoon 2020","ph":"7.29","ec":"416","tds":"266.24","co3":"0","hco3":"100","cl":"30","f":"0.21","no3":"21.33972727","so4":"52","na":"29","k":"4","ca":"40","mg":"14.586","th":"159.9753289","sar":"0.996881774","classification":"C2S1","rsc__meq___l":"-1.199506579","classification1":"P.S."},{"sno":"26","district":"BHUPALPALLY","mandal":"Kataram","village":"Shankarampally 125(D)","temp_id":"1057","long_gis":"79.8983","lat_gis":"18.6022","gwl":"28.88","season":"Pre-monsoon 2020","ph":"7.32","ec":"430","tds":"275.2","co3":"0","hco3":"190","cl":"30","f":"0.29","no3":"25.16477273","so4":"9","na":"19","k":"3","ca":"40","mg":"29.172","th":"219.9506579","sar":"0.55701018","classification":"C2S1","rsc__meq___l":"-0.599013158","classification1":"P.S."},{"sno":"27","district":"BHUPALPALLY","mandal":"Mahadevpur","village":"Ambatipalli","temp_id":"1060","long_gis":"80.061858","lat_gis":"18.695678","gwl":"24.23","season":"Pre-monsoon 2020","ph":"8.02","ec":"502","tds":"321.28","co3":"0","hco3":"190","cl":"50","f":"0.19","no3":"129.2462727","so4":"20","na":"42","k":"43","ca":"56","mg":"24.31","th":"239.9588816","sar":"1.178835049","classification":"C2S1","rsc__meq___l":"-0.999177632","classification1":"P.S."},{"sno":"28","district":"BHUPALPALLY","mandal":"Regonda","village":"Regonda","temp_id":"1077","long_gis":"79.7775","lat_gis":"18.24","gwl":"8.75","season":"Pre-monsoon 2020","ph":"7.62","ec":"936","tds":"599.04","co3":"0","hco3":"300","cl":"170","f":"0.68","no3":"95.82745455","so4":"24.75","na":"69","k":"3","ca":"56","mg":"102.102","th":"559.8273026","sar":"1.267926904","classification":"C3S1","rsc__meq___l":"-5.196546053","classification1":"P.S."},{"sno":"30","district":"HYDERABAD","mandal":"Asifnagar","village":"Himayanagar","temp_id":"1088","long_gis":"78.44525","lat_gis":"17.397638","gwl":"4.15","season":"Pre-monsoon 2020","ph":"7.43","ec":"1271","tds":"813.44","co3":"0","hco3":"330","cl":"150","f":"0.61","no3":"100.5383","so4":"24","na":"109.07","k":"7.38","ca":"72","mg":"53.482","th":"399.9095395","sar":"2.371355114","classification":"C3S1","rsc__meq___l":"-1.398190789","classification1":"P.S."},{"sno":"31","district":"HYDERABAD","mandal":"Asifnagar","village":"Kulsanapur","temp_id":"1089","long_gis":"78.437","lat_gis":"17.374","gwl":"8.01","season":"Pre-monsoon 2020","ph":"7.76","ec":"1123","tds":"718.72","co3":"0","hco3":"410","cl":"120","f":"0.86","no3":"43.8471","so4":"19","na":"103.78","k":"46.11","ca":"80","mg":"38.896","th":"359.9342105","sar":"2.37834179","classification":"C3S1","rsc__meq___l":"1.001315789","classification1":"P.S."},{"sno":"32","district":"HYDERABAD","mandal":"Bandlaguda","village":"Chandraingutta","temp_id":"1090","long_gis":"78.484","lat_gis":"17.333","gwl":"14.15","season":"Pre-monsoon 2020","ph":"7.76","ec":"1183","tds":"757.12","co3":"0","hco3":"350","cl":"140","f":"0.84","no3":"28.83279","so4":"26","na":"96.77","k":"3.05","ca":"96","mg":"38.896","th":"399.9342105","sar":"2.103868675","classification":"C3S1","rsc__meq___l":"-0.998684211","classification1":"P.S."},{"sno":"33","district":"HYDERABAD","mandal":"Charminar","village":"Darul Shifa","temp_id":"1092","long_gis":"78.485","lat_gis":"17.381","gwl":"9.22","season":"Pre-monsoon 2020","ph":"7.83","ec":"893","tds":"571.52","co3":"0","hco3":"350","cl":"70","f":"0.6","no3":"3.63178","so4":"13","na":"68.9","k":"21.42","ca":"80","mg":"24.31","th":"299.9588816","sar":"1.729659128","classification":"C3S1","rsc__meq___l":"1.000822368","classification1":"P.S."},{"sno":"34","district":"HYDERABAD","mandal":"Maredpally","village":"Maredpally(s)","temp_id":"1095","long_gis":"78.509","lat_gis":"17.441","gwl":"20.9","season":"Pre-monsoon 2020","ph":"7.82","ec":"878","tds":"561.92","co3":"0","hco3":"260","cl":"110","f":"1.97","no3":"30.38294","so4":"23","na":"77.5","k":"2.34","ca":"72","mg":"29.172","th":"299.9506579","sar":"1.94557939","classification":"C3S1","rsc__meq___l":"-0.799013158","classification1":"P.S."},{"sno":"35","district":"HYDERABAD","mandal":"Nampally","village":"Nampally","temp_id":"1097","long_gis":"78.474","lat_gis":"17.385","gwl":"5.99","season":"Pre-monsoon 2020","ph":"7.73","ec":"1008","tds":"645.12","co3":"0","hco3":"320","cl":"100","f":"1.43","no3":"22.32216","so4":"18","na":"103.77","k":"6.14","ca":"72","mg":"24.31","th":"279.9588816","sar":"2.696477841","classification":"C3S1","rsc__meq___l":"0.800822368","classification1":"P.S."},{"sno":"36","district":"HYDERABAD","mandal":"Saidabad","village":"Juvinile home","temp_id":"1098","long_gis":"78.508","lat_gis":"17.361","gwl":"8.11","season":"Pre-monsoon 2020","ph":"7.77","ec":"1036","tds":"663.04","co3":"0","hco3":"310","cl":"110","f":"1.34","no3":"25.82107","so4":"22","na":"114.44","k":"5.06","ca":"64","mg":"24.31","th":"259.9588816","sar":"3.086012517","classification":"C3S1","rsc__meq___l":"1.000822368","classification1":"P.S."},{"sno":"37","district":"JAGITYAL","mandal":"Dharmapuri","village":"Dharmapuri","temp_id":"1102","long_gis":"79.101944","lat_gis":"18.946944","gwl":"7.08","season":"Pre-monsoon 2020","ph":"7.81","ec":"532","tds":"340.48","co3":"0","hco3":"130","cl":"70","f":"0.58","no3":"32.00959091","so4":"12.25","na":"57","k":"7","ca":"16","mg":"24.31","th":"139.9588816","sar":"2.094820368","classification":"C2S1","rsc__meq___l":"-0.199177632","classification1":"P.S."},{"sno":"38","district":"JAGITYAL","mandal":"Gollapalli","village":"Gollapalli","temp_id":"1104","long_gis":"79.0522","lat_gis":"18.7906","gwl":"4.24","season":"Pre-monsoon 2020","ph":"8.32","ec":"2258","tds":"1445.12","co3":"40","hco3":"550","cl":"320","f":"2.39","no3":"35.02936364","so4":"52","na":"209","k":"6","ca":"72","mg":"121.55","th":"679.7944079","sar":"3.485215656","classification":"C4S1","rsc__meq___l":"-1.795888158","classification1":"P.S."},{"sno":"39","district":"JAGITYAL","mandal":"Ibrahimpatnam","village":"Ibrahimpatnam","temp_id":"1105","long_gis":"78.579444","lat_gis":"18.898611","gwl":"4.41","season":"Pre-monsoon 2020","ph":"7.51","ec":"753","tds":"481.92","co3":"0","hco3":"200","cl":"80","f":"0.53","no3":"45.69922727","so4":"25.25","na":"73","k":"3","ca":"24","mg":"38.896","th":"219.9342105","sar":"2.140171763","classification":"C3S1","rsc__meq___l":"-0.398684211","classification1":"P.S."},{"sno":"40","district":"JAGITYAL","mandal":"Jagityal","village":"Jagityal","temp_id":"1106","long_gis":"78.8461","lat_gis":"18.8252","gwl":"9.53","season":"Pre-monsoon 2020","ph":"8.28","ec":"1068","tds":"683.52","co3":"0","hco3":"290","cl":"170","f":"1.56","no3":"26.37268182","so4":"23.5","na":"126","k":"6","ca":"24","mg":"58.344","th":"299.9013158","sar":"3.163395726","classification":"C3S1","rsc__meq___l":"-0.198026316","classification1":"P.S."},{"sno":"41","district":"JAGITYAL","mandal":"Kathalapur","village":"Kathalapur","temp_id":"1108","long_gis":"78.689722","lat_gis":"18.752777","gwl":"5.67","season":"Pre-monsoon 2020","ph":"8.3","ec":"1404","tds":"898.56","co3":"20","hco3":"330","cl":"220","f":"2.28","no3":"5.032954545","so4":"33.75","na":"134","k":"5","ca":"32","mg":"82.654","th":"419.8601974","sar":"2.8433126","classification":"C3S1","rsc__meq___l":"-1.397203947","classification1":"P.S."},{"sno":"42","district":"JAGITYAL","mandal":"Kodimal","village":"Chepial","temp_id":"1109","long_gis":"78.935833","lat_gis":"18.624722","gwl":"11.15","season":"Pre-monsoon 2020","ph":"8.06","ec":"1037","tds":"663.68","co3":"0","hco3":"290","cl":"130","f":"2.59","no3":"13.287","so4":"23","na":"104","k":"2","ca":"24","mg":"58.344","th":"299.9013158","sar":"2.61105679","classification":"C3S1","rsc__meq___l":"-0.198026316","classification1":"P.S."},{"sno":"43","district":"JAGITYAL","mandal":"Korutla","village":"Korutla","temp_id":"1111","long_gis":"78.706388","lat_gis":"18.818611","gwl":"7.58","season":"Pre-monsoon 2020","ph":"7.91","ec":"1033","tds":"661.12","co3":"0","hco3":"230","cl":"140","f":"1.38","no3":"76.90354545","so4":"26","na":"106","k":"4","ca":"24","mg":"58.344","th":"299.9013158","sar":"2.66126942","classification":"C3S1","rsc__meq___l":"-1.398026316","classification1":"P.S."},{"sno":"44","district":"JAGITYAL","mandal":"Mallapur","village":"Mallapur","temp_id":"1112","long_gis":"78.7064","lat_gis":"18.9647","gwl":"9.1","season":"Pre-monsoon 2020","ph":"7.86","ec":"659","tds":"421.76","co3":"0","hco3":"120","cl":"90","f":"0.89","no3":"67.03895455","so4":"22.75","na":"61","k":"5","ca":"24","mg":"34.034","th":"199.9424342","sar":"1.87564011","classification":"C2S1","rsc__meq___l":"-1.598848684","classification1":"P.S."},{"sno":"45","district":"JAGITYAL","mandal":"Mallial","village":"Nukapalli","temp_id":"1114","long_gis":"78.9222","lat_gis":"18.7094","gwl":"9.81","season":"Pre-monsoon 2020","ph":"8.09","ec":"2636","tds":"1687.04","co3":"0","hco3":"360","cl":"610","f":"1.74","no3":"23.55422727","so4":"98","na":"234","k":"5","ca":"96","mg":"145.86","th":"839.7532895","sar":"3.510849109","classification":"C4S2","rsc__meq___l":"-9.595065789","classification1":"P.S."},{"sno":"46","district":"JAGITYAL","mandal":"Metpalli","village":"Metpalli","temp_id":"1121","long_gis":"78.620555","lat_gis":"18.847777","gwl":"13.53","season":"Pre-monsoon 2020","ph":"7.81","ec":"1960","tds":"1254.4","co3":"0","hco3":"370","cl":"390","f":"0.5","no3":"46.10186364","so4":"25.5","na":"196","k":"14","ca":"72","mg":"92.378","th":"559.84375","sar":"3.601594532","classification":"C3S1","rsc__meq___l":"-3.796875","classification1":"P.S."},{"sno":"47","district":"JAGITYAL","mandal":"Pegadapalli","village":"Pegadapalli","temp_id":"1122","long_gis":"79.064444","lat_gis":"18.706388","gwl":"4.12","season":"Pre-monsoon 2020","ph":"7.77","ec":"1081","tds":"691.84","co3":"0","hco3":"150","cl":"190","f":"0.97","no3":"120.9922273","so4":"29.75","na":"108","k":"5","ca":"32","mg":"58.344","th":"319.9013158","sar":"2.62535421","classification":"C3S1","rsc__meq___l":"-3.398026316","classification1":"P.S."},{"sno":"48","district":"JAGITYAL","mandal":"Raikal","village":"Raikal","temp_id":"1125","long_gis":"78.802852","lat_gis":"18.910338","gwl":"2.22","season":"Pre-monsoon 2020","ph":"7.67","ec":"614","tds":"392.96","co3":"0","hco3":"180","cl":"70","f":"0.46","no3":"14.49490909","so4":"15.25","na":"61","k":"2","ca":"24","mg":"29.172","th":"179.9506579","sar":"1.97708472","classification":"C2S1","rsc__meq___l":"0.000986842","classification1":"P.S."},{"sno":"49","district":"JAGITYAL","mandal":"Sarangapur","village":"Sarangapur","temp_id":"1128","long_gis":"78.958055","lat_gis":"18.929722","gwl":"7.34","season":"Pre-monsoon 2020","ph":"8.29","ec":"717","tds":"458.88","co3":"0","hco3":"230","cl":"80","f":"1.18","no3":"10.46854545","so4":"11.25","na":"71","k":"4","ca":"16","mg":"43.758","th":"219.9259868","sar":"2.081575837","classification":"C2S1","rsc__meq___l":"0.201480263","classification1":"P.S."},{"sno":"50","district":"JAGITYAL","mandal":"Velgatur","village":"Velgatur","temp_id":"1131","long_gis":"79.1697","lat_gis":"18.8353","gwl":"5.52","season":"Pre-monsoon 2020","ph":"8.27","ec":"1487","tds":"951.68","co3":"0","hco3":"390","cl":"220","f":"1.77","no3":"2.2145","so4":"33","na":"167","k":"6","ca":"32","mg":"72.93","th":"379.8766447","sar":"3.725352205","classification":"C3S1","rsc__meq___l":"0.202467105","classification1":"P.S."},{"sno":"51","district":"JANGAON","mandal":"Bachannapet","village":"Bachannapet","temp_id":"1132","long_gis":"79.0422","lat_gis":"17.7908","gwl":"8.15","season":"Pre-monsoon 2020","ph":"7.39","ec":"442","tds":"282.88","co3":"0","hco3":"210","cl":"50","f":"0.72","no3":"4.429","so4":"14","na":"29","k":"4","ca":"88","mg":"14.586","th":"279.9753289","sar":"0.753546887","classification":"C2S1","rsc__meq___l":"-1.399506579","classification1":"P.S."},{"sno":"52","district":"JANGAON","mandal":"Devaruppula","village":"Singarajupalli","temp_id":"1135","long_gis":"79.2738","lat_gis":"17.5919","gwl":"7.38","season":"Pre-monsoon 2020","ph":"7.26","ec":"1347","tds":"862.08","co3":"0","hco3":"390","cl":"180","f":"0.88","no3":"130.4541818","so4":"23.75","na":"160","k":"2","ca":"48","mg":"111.826","th":"579.8108553","sar":"2.889009538","classification":"C3S1","rsc__meq___l":"-3.796217105","classification1":"P.S."},{"sno":"53","district":"JANGAON","mandal":"Jangaon","village":"Jangaon","temp_id":"1144","long_gis":"79.1474","lat_gis":"17.6973","gwl":"6.65","season":"Pre-monsoon 2020","ph":"7.35","ec":"1070","tds":"684.8","co3":"0","hco3":"270","cl":"150","f":"0.95","no3":"125.6225455","so4":"22","na":"138","k":"2","ca":"72","mg":"53.482","th":"399.9095395","sar":"3.000339285","classification":"C3S1","rsc__meq___l":"-2.598190789","classification1":"P.S."},{"sno":"54","district":"JANGAON","mandal":"Lingala ghanpur","village":"Lingala ghanpur","temp_id":"1149","long_gis":"79.1997","lat_gis":"17.6591","gwl":"10.55","season":"Pre-monsoon 2020","ph":"7.26","ec":"1372","tds":"878.08","co3":"0","hco3":"250","cl":"220","f":"0.56","no3":"135.2858182","so4":"36.25","na":"223","k":"2","ca":"64","mg":"48.62","th":"359.9177632","sar":"5.110641138","classification":"C3S1","rsc__meq___l":"-2.198355263","classification1":"P.S."},{"sno":"55","district":"JANGAON","mandal":"Palakurthi","village":"Palakurthi","temp_id":"1154","long_gis":"79.4225","lat_gis":"17.6691","gwl":"14.56","season":"Pre-monsoon 2020","ph":"8.01","ec":"453","tds":"289.92","co3":"0","hco3":"240","cl":"20","f":"1.07","no3":"20.73577273","so4":"8.5","na":"58","k":"5","ca":"56","mg":"19.448","th":"219.9671053","sar":"1.700283294","classification":"C2S1","rsc__meq___l":"0.400657895","classification1":"P.S."},{"sno":"56","district":"JANGAON","mandal":"Raghunadhapalli","village":"Raghunadhapalli","temp_id":"1157","long_gis":"79.2636","lat_gis":"17.7647","gwl":"15.08","season":"Pre-monsoon 2020","ph":"8.12","ec":"1156","tds":"739.84","co3":"0","hco3":"430","cl":"150","f":"1.66","no3":"33.41881818","so4":"22.5","na":"197","k":"2","ca":"64","mg":"53.482","th":"379.9095395","sar":"4.394386894","classification":"C3S1","rsc__meq___l":"1.001809211","classification1":"P.S."},{"sno":"57","district":"JANGAON","mandal":"Zafergad","village":"Zafergad","temp_id":"1159","long_gis":"79.487","lat_gis":"17.7651","gwl":"11.29","season":"Pre-monsoon 2020","ph":"7.29","ec":"1727","tds":"1105.28","co3":"0","hco3":"190","cl":"460","f":"0.26","no3":"36.23727273","so4":"52","na":"296","k":"5","ca":"88","mg":"58.344","th":"459.9013158","sar":"6.001109469","classification":"C3S1","rsc__meq___l":"-5.398026316","classification1":"P.S."},{"sno":"58","district":"JOGULAMBA(GADWAL)","mandal":"Alampur","village":"Alampur","temp_id":"1160","long_gis":"78.121104","lat_gis":"15.896441","gwl":"3.45","season":"Pre-monsoon 2020","ph":"7.99","ec":"2636","tds":"1687.04","co3":"0","hco3":"480","cl":"550","f":"2.53","no3":"19.66476","so4":"13","na":"511","k":"5","ca":"72","mg":"4.862","th":"199.9917763","sar":"15.71039105","classification":"C4S4","rsc__meq___l":"5.600164474","classification1":"U.S."},{"sno":"59","district":"JOGULAMBA(GADWAL)","mandal":"Dharoor","village":"Dharoor","temp_id":"1161","long_gis":"77.678908","lat_gis":"16.224385","gwl":"18","season":"Pre-monsoon 2020","ph":"7.67","ec":"1640","tds":"1049.6","co3":"0","hco3":"360","cl":"270","f":"0.61","no3":"38.9752","so4":"43","na":"76","k":"6","ca":"160","mg":"63.206","th":"659.8930921","sar":"1.286319831","classification":"C3S1","rsc__meq___l":"-5.997861842","classification1":"P.S."},{"sno":"60","district":"JOGULAMBA(GADWAL)","mandal":"Dharoor","village":"Neelahally","temp_id":"1163","long_gis":"77.641794","lat_gis":"16.265211","gwl":"18.66","season":"Pre-monsoon 2020","ph":"8.01","ec":"1700","tds":"1088","co3":"0","hco3":"420","cl":"250","f":"1.87","no3":"43.71423","so4":"36","na":"126","k":"2.6","ca":"112","mg":"72.93","th":"579.8766447","sar":"2.274965948","classification":"C3S1","rsc__meq___l":"-3.197532895","classification1":"P.S."},{"sno":"61","district":"JOGULAMBA(GADWAL)","mandal":"Gadwal","village":"Gadwal","temp_id":"1164","long_gis":"77.8021","lat_gis":"16.2326","gwl":"3.15","season":"Pre-monsoon 2020","ph":"7.42","ec":"3961","tds":"2535.04","co3":"0","hco3":"420","cl":"980","f":"0.89","no3":"13.7299","so4":"86","na":"225","k":"3","ca":"264","mg":"194.48","th":"1459.671053","sar":"2.560514175","classification":"C4S1","rsc__meq___l":"-20.79342105","classification1":"P.S."},{"sno":"62","district":"JOGULAMBA(GADWAL)","mandal":"Gattu","village":"Gattu","temp_id":"1165","long_gis":"77.5757","lat_gis":"16.1287","gwl":"4.8","season":"Pre-monsoon 2020","ph":"7.88","ec":"632","tds":"404.48","co3":"0","hco3":"180","cl":"70","f":"0.57","no3":"36.7607","so4":"11","na":"40","k":"1","ca":"88","mg":"4.862","th":"239.9917763","sar":"1.122623102","classification":"C2S1","rsc__meq___l":"-1.199835526","classification1":"P.S."},{"sno":"63","district":"JOGULAMBA(GADWAL)","mandal":"Ieeza","village":"Ieeza","temp_id":"1168","long_gis":"77.671609","lat_gis":"16.01518","gwl":"19.91","season":"Pre-monsoon 2020","ph":"8.15","ec":"2661","tds":"1703.04","co3":"0","hco3":"810","cl":"310","f":"2","no3":"67.7637","so4":"31","na":"515","k":"5.9","ca":"56","mg":"29.172","th":"259.9506579","sar":"13.88781532","classification":"C4S4","rsc__meq___l":"11.00098684","classification1":"U.S."},{"sno":"64","district":"JOGULAMBA(GADWAL)","mandal":"K-T Doddi","village":"Kondapur","temp_id":"1169","long_gis":"77.8315","lat_gis":"16.0701","gwl":"4.96","season":"Pre-monsoon 2020","ph":"8.22","ec":"1142","tds":"730.88","co3":"0","hco3":"350","cl":"110","f":"3.11","no3":"32.06596","so4":"27","na":"162","k":"1.6","ca":"64","mg":"14.586","th":"219.9753289","sar":"4.74897836","classification":"C3S1","rsc__meq___l":"2.600493421","classification1":"U.S."},{"sno":"65","district":"JOGULAMBA(GADWAL)","mandal":"K-T Doddi","village":"Kuchinerla","temp_id":"1166","long_gis":"77.526","lat_gis":"16.179","gwl":"11.23","season":"Pre-monsoon 2020","ph":"8.04","ec":"626","tds":"400.64","co3":"0","hco3":"170","cl":"60","f":"0.68","no3":"60.2344","so4":"10","na":"29","k":"0.34","ca":"88","mg":"9.724","th":"259.9835526","sar":"0.781982844","classification":"C2S1","rsc__meq___l":"-1.799671053","classification1":"P.S."},{"sno":"66","district":"JOGULAMBA(GADWAL)","mandal":"Maldakal","village":"Maldakal","temp_id":"1170","long_gis":"77.687599","lat_gis":"16.129667","gwl":"4.35","season":"Pre-monsoon 2020","ph":"7.84","ec":"1560","tds":"998.4","co3":"0","hco3":"330","cl":"260","f":"0.99","no3":"67.7637","so4":"34","na":"103","k":"2","ca":"120","mg":"68.068","th":"579.8848684","sar":"1.859681199","classification":"C3S1","rsc__meq___l":"-4.997697368","classification1":"P.S."},{"sno":"67","district":"JOGULAMBA(GADWAL)","mandal":"Manopad","village":"Manopad","temp_id":"1171","long_gis":"77.9533","lat_gis":"15.9656","gwl":"9.17","season":"Pre-monsoon 2020","ph":"7.82","ec":"4264","tds":"2728.96","co3":"0","hco3":"530","cl":"740","f":"1.28","no3":"451.758","so4":"26","na":"623","k":"1","ca":"80","mg":"121.55","th":"699.7944079","sar":"10.23941103","classification":"C4S3","rsc__meq___l":"-3.395888158","classification1":"P.S."},{"sno":"68","district":"JOGULAMBA(GADWAL)","mandal":"Waddepalli","village":"Santhinagar","temp_id":"1172","long_gis":"77.839","lat_gis":"15.94","gwl":"3.37","season":"Pre-monsoon 2020","ph":"8.05","ec":"5175","tds":"3312","co3":"0","hco3":"480","cl":"1010","f":"1.33","no3":"456.187","so4":"158","na":"712","k":"20","ca":"128","mg":"155.584","th":"959.7368421","sar":"9.992544115","classification":"O.G","rsc__meq___l":"-9.594736842","classification1":"P.S."},{"sno":"69","district":"KAMAREDDY","mandal":"Bansawada","village":"Bansawada","temp_id":"1177","long_gis":"77.879","lat_gis":"18.393","gwl":"6.25","season":"Pre-monsoon 2020","ph":"8.25","ec":"2013","tds":"1288.32","co3":"0","hco3":"510","cl":"60","f":"4.23","no3":"4.91619","so4":"440","na":"320","k":"1.2","ca":"48","mg":"63.206","th":"379.8930921","sar":"7.138244905","classification":"C3S2","rsc__meq___l":"2.602138158","classification1":"U.S."},{"sno":"70","district":"KAMAREDDY","mandal":"Bhiknoor","village":"Bhiknoor","temp_id":"1179","long_gis":"78.399","lat_gis":"18.196","gwl":"17.61","season":"Pre-monsoon 2020","ph":"7.73","ec":"1369","tds":"876.16","co3":"0","hco3":"340","cl":"220","f":"0.97","no3":"53.19229","so4":"21","na":"108","k":"4.18","ca":"80","mg":"68.068","th":"479.8848684","sar":"2.143519266","classification":"C3S1","rsc__meq___l":"-2.797697368","classification1":"P.S."},{"sno":"71","district":"KAMAREDDY","mandal":"Bhiknoor","village":"P.D.Mallareddy","temp_id":"1197","long_gis":"78.453","lat_gis":"18.173","gwl":"21.13","season":"Pre-monsoon 2020","ph":"7.43","ec":"2335","tds":"1494.4","co3":"0","hco3":"480","cl":"350","f":"0.82","no3":"195.3189","so4":"19","na":"211.5","k":"10.1","ca":"144","mg":"82.654","th":"699.8601974","sar":"3.475976953","classification":"C4S1","rsc__meq___l":"-4.397203947","classification1":"P.S."},{"sno":"72","district":"KAMAREDDY","mandal":"Bibipet","village":"Bibipet","temp_id":"1180","long_gis":"78.523","lat_gis":"18.205","gwl":"25.68","season":"Pre-monsoon 2020","ph":"7.91","ec":"849","tds":"543.36","co3":"0","hco3":"300","cl":"70","f":"0.99","no3":"43.31562","so4":"8","na":"29.83","k":"1.97","ca":"80","mg":"43.758","th":"379.9259868","sar":"0.66538946","classification":"C3S1","rsc__meq___l":"-1.598519737","classification1":"P.S."},{"sno":"73","district":"KAMAREDDY","mandal":"BICHKUNDA","village":"Pulkal","temp_id":"1198","long_gis":"77.767","lat_gis":"18.399","gwl":"6.72","season":"Pre-monsoon 2020","ph":"7.4","ec":"1633","tds":"1045.12","co3":"0","hco3":"330","cl":"270","f":"0.82","no3":"48.23181","so4":"23","na":"91.57","k":"3.11","ca":"184","mg":"29.172","th":"579.9506579","sar":"1.653216973","classification":"C3S1","rsc__meq___l":"-4.999013158","classification1":"P.S."},{"sno":"74","district":"KAMAREDDY","mandal":"Domakonda","village":"Domakonda","temp_id":"1183","long_gis":"78.436","lat_gis":"18.25","gwl":"25.08","season":"Pre-monsoon 2020","ph":"7.51","ec":"1683","tds":"1077.12","co3":"0","hco3":"360","cl":"290","f":"0.72","no3":"55.8054","so4":"14","na":"79.2","k":"4.39","ca":"144","mg":"72.93","th":"659.8766447","sar":"1.340497372","classification":"C3S1","rsc__meq___l":"-5.997532895","classification1":"P.S."},{"sno":"75","district":"KAMAREDDY","mandal":"Gandhari","village":"Gandhari","temp_id":"1184","long_gis":"78.107","lat_gis":"18.396","gwl":"16.37","season":"Pre-monsoon 2020","ph":"7.75","ec":"807","tds":"516.48","co3":"0","hco3":"300","cl":"50","f":"0.67","no3":"39.77242","so4":"7","na":"25.24","k":"2.33","ca":"64","mg":"48.62","th":"359.9177632","sar":"0.578442073","classification":"C3S1","rsc__meq___l":"-1.198355263","classification1":"P.S."},{"sno":"76","district":"KAMAREDDY","mandal":"Gandhari","village":"Sarvapoor","temp_id":"1202","long_gis":"77.9851","lat_gis":"18.3647","gwl":"18.1","season":"Pre-monsoon 2020","ph":"7.98","ec":"976","tds":"624.64","co3":"0","hco3":"360","cl":"80","f":"0.62","no3":"48.89616","so4":"11","na":"39.32","k":"0.98","ca":"104","mg":"43.758","th":"439.9259868","sar":"0.815071795","classification":"C3S1","rsc__meq___l":"-1.598519737","classification1":"P.S."},{"sno":"77","district":"KAMAREDDY","mandal":"Jukkal","village":"Jukkal","temp_id":"1186","long_gis":"77.604","lat_gis":"18.364","gwl":"9.47","season":"Pre-monsoon 2020","ph":"7.76","ec":"2476","tds":"1584.64","co3":"0","hco3":"620","cl":"410","f":"1.81","no3":"1.28441","so4":"23","na":"280.2","k":"29.7","ca":"80","mg":"97.24","th":"599.8355263","sar":"4.974210992","classification":"C4S2","rsc__meq___l":"0.403289474","classification1":"P.S."},{"sno":"78","district":"KAMAREDDY","mandal":"Kamareddy","village":"Adloor","temp_id":"1174","long_gis":"78.3435","lat_gis":"18.3438","gwl":"19.27","season":"Pre-monsoon 2020","ph":"8.11","ec":"535","tds":"342.4","co3":"0","hco3":"220","cl":"30","f":"1.9","no3":"31.62306","so4":"5","na":"46","k":"2.59","ca":"56","mg":"14.586","th":"199.9753289","sar":"1.414300796","classification":"C2S1","rsc__meq___l":"0.400493421","classification1":"P.S."},{"sno":"79","district":"KAMAREDDY","mandal":"Kamareddy","village":"Narasannapally","temp_id":"1195","long_gis":"78.3617","lat_gis":"18.2686","gwl":"18.41","season":"Pre-monsoon 2020","ph":"7.66","ec":"803","tds":"513.92","co3":"0","hco3":"180","cl":"140","f":"2.28","no3":"25.77678","so4":"13","na":"36","k":"3.39","ca":"104","mg":"19.448","th":"339.9671053","sar":"0.848899379","classification":"C3S1","rsc__meq___l":"-3.199342105","classification1":"P.S."},{"sno":"80","district":"KAMAREDDY","mandal":"Lingampet","village":"Bhavanipet","temp_id":"1178","long_gis":"78.058","lat_gis":"18.2791","gwl":"9.9","season":"Pre-monsoon 2020","ph":"7.79","ec":"1252","tds":"801.28","co3":"0","hco3":"410","cl":"120","f":"1.04","no3":"40.96825","so4":"14","na":"89.89","k":"3.07","ca":"120","mg":"34.034","th":"439.9424342","sar":"1.863312158","classification":"C3S1","rsc__meq___l":"-0.598848684","classification1":"P.S."},{"sno":"81","district":"KAMAREDDY","mandal":"Machareddy","village":"Machareddy","temp_id":"1189","long_gis":"78.493","lat_gis":"18.329","gwl":"11.74","season":"Pre-monsoon 2020","ph":"8","ec":"1371","tds":"877.44","co3":"0","hco3":"280","cl":"250","f":"0.64","no3":"40.48106","so4":"19","na":"60","k":"2.52","ca":"160","mg":"38.896","th":"559.9342105","sar":"1.102439875","classification":"C3S1","rsc__meq___l":"-5.598684211","classification1":"P.S."},{"sno":"82","district":"KAMAREDDY","mandal":"Maddnur","village":"Menoor","temp_id":"1193","long_gis":"77.652","lat_gis":"18.483","gwl":"15.01","season":"Pre-monsoon 2020","ph":"7.85","ec":"1115","tds":"713.6","co3":"0","hco3":"290","cl":"150","f":"0.35","no3":"53.10371","so4":"12","na":"62","k":"4.83","ca":"128","mg":"24.31","th":"419.9588816","sar":"1.315407968","classification":"C3S1","rsc__meq___l":"-2.599177632","classification1":"P.S."},{"sno":"83","district":"KAMAREDDY","mandal":"Nagireddipet","village":"Malthummeda","temp_id":"1191","long_gis":"78.142","lat_gis":"18.114","gwl":"14.7","season":"Pre-monsoon 2020","ph":"7.74","ec":"979","tds":"626.56","co3":"0","hco3":"410","cl":"50","f":"1","no3":"15.67866","so4":"9","na":"47.74","k":"1.69","ca":"88","mg":"43.758","th":"399.9259868","sar":"1.037922116","classification":"C3S1","rsc__meq___l":"0.201480263","classification1":"P.S."},{"sno":"84","district":"KAMAREDDY","mandal":"Nasurullabad","village":"Nasurullabad","temp_id":"1196","long_gis":"77.873","lat_gis":"18.468","gwl":"5.74","season":"Pre-monsoon 2020","ph":"7.78","ec":"816","tds":"522.24","co3":"0","hco3":"300","cl":"70","f":"1.34","no3":"8.90229","so4":"12","na":"66.48","k":"1.75","ca":"48","mg":"38.896","th":"279.9342105","sar":"1.727568142","classification":"C3S1","rsc__meq___l":"0.401315789","classification1":"P.S."},{"sno":"85","district":"KAMAREDDY","mandal":"Nizamsagar","village":"Mohammadnagar","temp_id":"1192","long_gis":"77.908661","lat_gis":"18.293098","gwl":"6.12","season":"Pre-monsoon 2020","ph":"7.51","ec":"2446","tds":"1565.44","co3":"0","hco3":"430","cl":"360","f":"1.3","no3":"229.11217","so4":"23","na":"244","k":"2.8","ca":"176","mg":"43.758","th":"619.9259868","sar":"4.260809028","classification":"C4S2","rsc__meq___l":"-3.798519737","classification1":"P.S."},{"sno":"86","district":"KAMAREDDY","mandal":"Rajampet","village":"Argonda","temp_id":"1175","long_gis":"78.272","lat_gis":"18.234","gwl":"15.73","season":"Pre-monsoon 2020","ph":"7.94","ec":"765","tds":"489.6","co3":"0","hco3":"360","cl":"30","f":"1.24","no3":"3.49891","so4":"10","na":"45.75","k":"2.08","ca":"72","mg":"34.034","th":"319.9424342","sar":"1.112057747","classification":"C3S1","rsc__meq___l":"0.801151316","classification1":"P.S."},{"sno":"87","district":"KAMAREDDY","mandal":"RAMAREDDY","village":"Reddypet","temp_id":"1200","long_gis":"78.417","lat_gis":"18.409","gwl":"13.55","season":"Pre-monsoon 2020","ph":"7.95","ec":"695","tds":"444.8","co3":"0","hco3":"190","cl":"100","f":"0.89","no3":"25.73249","so4":"14","na":"50","k":"2.35","ca":"72","mg":"19.448","th":"259.9671053","sar":"1.348288931","classification":"C2S1","rsc__meq___l":"-1.399342105","classification1":"P.S."},{"sno":"88","district":"KAMAREDDY","mandal":"Sadasivanagar","village":"Sadasivanagar","temp_id":"1201","long_gis":"78.264","lat_gis":"18.406","gwl":"12.08","season":"Pre-monsoon 2020","ph":"7.96","ec":"573","tds":"366.72","co3":"0","hco3":"220","cl":"30","f":"1.5","no3":"50.97779","so4":"11","na":"27","k":"2.54","ca":"64","mg":"24.31","th":"259.9588816","sar":"0.728087539","classification":"C2S1","rsc__meq___l":"-0.799177632","classification1":"P.S."},{"sno":"89","district":"KAMAREDDY","mandal":"Tadwai","village":"Yerrapahad","temp_id":"1205","long_gis":"78.223","lat_gis":"18.293","gwl":"4.62","season":"Pre-monsoon 2020","ph":"7.76","ec":"1582","tds":"1012.48","co3":"0","hco3":"420","cl":"190","f":"0.59","no3":"55.22963","so4":"18","na":"70.02","k":"66.61","ca":"152","mg":"34.034","th":"519.9424342","sar":"1.33510874","classification":"C3S1","rsc__meq___l":"-1.998848684","classification1":"P.S."},{"sno":"90","district":"KARIMNAGAR","mandal":"Choppadandi","village":"Rukmapur","temp_id":"1210","long_gis":"79.1461","lat_gis":"18.5334","gwl":"11.85","season":"Pre-monsoon 2020","ph":"8.14","ec":"790","tds":"505.6","co3":"0","hco3":"210","cl":"60","f":"0.7","no3":"16.10545455","so4":"17.5","na":"80","k":"4","ca":"32","mg":"19.448","th":"159.9671053","sar":"2.750089374","classification":"C3S1","rsc__meq___l":"1.000657895","classification1":"P.S."},{"sno":"91","district":"KARIMNAGAR","mandal":"Gangadhara","village":"Gangadhara","temp_id":"1213","long_gis":"79.008888","lat_gis":"18.579444","gwl":"21.37","season":"Pre-monsoon 2020","ph":"8.25","ec":"522","tds":"334.08","co3":"0","hco3":"170","cl":"40","f":"0.61","no3":"16.30677273","so4":"9.25","na":"60","k":"3","ca":"16","mg":"19.448","th":"119.9671053","sar":"2.381728889","classification":"C2S1","rsc__meq___l":"1.000657895","classification1":"P.S."},{"sno":"92","district":"KARIMNAGAR","mandal":"Huzurabad","village":"Huzurabad","temp_id":"1215","long_gis":"79.407573","lat_gis":"18.189488","gwl":"4.01","season":"Pre-monsoon 2020","ph":"8.28","ec":"565","tds":"361.6","co3":"0","hco3":"150","cl":"30","f":"0.69","no3":"47.71240909","so4":"8.5","na":"56","k":"2","ca":"16","mg":"19.448","th":"119.9671053","sar":"2.222946963","classification":"C2S1","rsc__meq___l":"0.600657895","classification1":"P.S."},{"sno":"93","district":"KARIMNAGAR","mandal":"Saidapur","village":"Saidapur","temp_id":"1222","long_gis":"79.305174","lat_gis":"18.2148","gwl":"9.41","season":"Pre-monsoon 2020","ph":"8.23","ec":"634","tds":"405.76","co3":"0","hco3":"230","cl":"40","f":"2.72","no3":"4.026363636","so4":"12","na":"69","k":"3","ca":"24","mg":"24.31","th":"159.9588816","sar":"2.372013057","classification":"C2S1","rsc__meq___l":"1.400822368","classification1":"MR"},{"sno":"94","district":"KARIMNAGAR","mandal":"Thimmapur","village":"Alugunur","temp_id":"1223","long_gis":"79.151234","lat_gis":"18.400873","gwl":"7.19","season":"Pre-monsoon 2020","ph":"8.27","ec":"753","tds":"481.92","co3":"0","hco3":"230","cl":"70","f":"0.88","no3":"19.32654545","so4":"12.25","na":"78","k":"3","ca":"32","mg":"29.172","th":"199.9506579","sar":"2.398310164","classification":"C3S1","rsc__meq___l":"0.600986842","classification1":"P.S."},{"sno":"95","district":"KHAMMAM","mandal":"Bonakal","village":"Mustikunta","temp_id":"1226","long_gis":"80.223141","lat_gis":"17.040809","gwl":"2.95","season":"Pre-monsoon 2020","ph":"8.08","ec":"1602","tds":"1025.28","co3":"0","hco3":"260","cl":"280","f":"0.52","no3":"85.56022727","so4":"48.5","na":"166","k":"7","ca":"104","mg":"38.896","th":"419.9342105","sar":"3.522002207","classification":"C3S1","rsc__meq___l":"-3.198684211","classification1":"P.S."},{"sno":"99","district":"KHAMMAM","mandal":"Khammam(U)","village":"Khammam I","temp_id":"1229","long_gis":"80.1333","lat_gis":"17.2333","gwl":"1.4","season":"Pre-monsoon 2020","ph":"8.51","ec":"574","tds":"367.36","co3":"80","hco3":"120","cl":"70","f":"1.55","no3":"2.2145","so4":"15.25","na":"70","k":"2","ca":"64","mg":"4.862","th":"179.9917763","sar":"2.268526582","classification":"C2S1","rsc__meq___l":"0.400164474","classification1":"P.S."},{"sno":"101","district":"KHAMMAM","mandal":"Konijerla","village":"Konijerla","temp_id":"1232","long_gis":"80.2908","lat_gis":"17.2211","gwl":"2.27","season":"Pre-monsoon 2020","ph":"7.99","ec":"1268","tds":"811.52","co3":"0","hco3":"260","cl":"220","f":"0.71","no3":"41.67286364","so4":"26.25","na":"43","k":"4","ca":"72","mg":"111.826","th":"639.8108553","sar":"0.739119767","classification":"C3S1","rsc__meq___l":"-7.596217105","classification1":"P.S."},{"sno":"102","district":"KHAMMAM","mandal":"Kusumanchi","village":"Kusumanchi","temp_id":"1233","long_gis":"79.9583","lat_gis":"17.2208","gwl":"11.3","season":"Pre-monsoon 2020","ph":"8.08","ec":"686","tds":"439.04","co3":"0","hco3":"240","cl":"70","f":"0.56","no3":"0.805272727","so4":"24","na":"69","k":"12","ca":"72","mg":"4.862","th":"199.9917763","sar":"2.121363958","classification":"C2S1","rsc__meq___l":"0.800164474","classification1":"P.S."},{"sno":"103","district":"KHAMMAM","mandal":"Mudigonda","village":"Mudigonda","temp_id":"1234","long_gis":"80.0986","lat_gis":"17.1875","gwl":"3.5","season":"Pre-monsoon 2020","ph":"8.09","ec":"638","tds":"408.32","co3":"0","hco3":"260","cl":"50","f":"0.85","no3":"0.805272727","so4":"15.75","na":"57","k":"3","ca":"80","mg":"4.862","th":"219.9917763","sar":"1.670874367","classification":"C2S1","rsc__meq___l":"0.800164474","classification1":"P.S."},{"sno":"109","district":"KHAMMAM","mandal":"Yerrupalem","village":"Banigandlapadu","temp_id":"3088","long_gis":"80.48","lat_gis":"16.86","gwl":"18.9","season":"Pre-monsoon 2020","ph":"8.07","ec":"968","tds":"619.52","co3":"0","hco3":"270","cl":"130","f":"0.58","no3":"0.402636364","so4":"22.75","na":"147","k":"1","ca":"40","mg":"19.448","th":"179.9671053","sar":"4.764232344","classification":"C3S1","rsc__meq___l":"1.800657895","classification1":"MR"},{"sno":"110","district":"KUMURAM BHEEM","mandal":"Asifabad","village":"Asifabad","temp_id":"1243","long_gis":"79.286065","lat_gis":"19.359617","gwl":"21.42","season":"Pre-monsoon 2020","ph":"8.04","ec":"1080","tds":"691.2","co3":"0","hco3":"330","cl":"90","f":"1.05","no3":"22.34631818","so4":"25.75","na":"115","k":"3","ca":"40","mg":"38.896","th":"259.9342105","sar":"3.101260756","classification":"C3S1","rsc__meq___l":"1.401315789","classification1":"MR"},{"sno":"111","district":"KUMURAM BHEEM","mandal":"Kagaznagar","village":"Kagaznagar","temp_id":"1250","long_gis":"79.496997","lat_gis":"19.355709","gwl":"6.5","season":"Pre-monsoon 2020","ph":"8.22","ec":"828","tds":"529.92","co3":"0","hco3":"270","cl":"60","f":"0.6","no3":"49.52427273","so4":"17.5","na":"82","k":"4","ca":"40","mg":"34.034","th":"239.9424342","sar":"2.301613977","classification":"C3S1","rsc__meq___l":"0.601151316","classification1":"P.S."},{"sno":"112","district":"KUMURAM BHEEM","mandal":"Kerameri","village":"Kerameri","temp_id":"1252","long_gis":"79.05625","lat_gis":"19.444","gwl":"12.45","season":"Pre-monsoon 2020","ph":"8.21","ec":"680","tds":"435.2","co3":"0","hco3":"230","cl":"50","f":"0.62","no3":"41.06890909","so4":"8.75","na":"68","k":"3","ca":"32","mg":"29.172","th":"199.9506579","sar":"2.090834502","classification":"C2S1","rsc__meq___l":"0.600986842","classification1":"P.S."},{"sno":"113","district":"KUMURAM BHEEM","mandal":"Kowthala","village":"Kowthala","temp_id":"1253","long_gis":"79.7324","lat_gis":"19.5219","gwl":"7.2","season":"Pre-monsoon 2020","ph":"8.23","ec":"421","tds":"269.44","co3":"0","hco3":"160","cl":"20","f":"0.27","no3":"15.09886364","so4":"8.5","na":"42","k":"2","ca":"16","mg":"19.448","th":"119.9671053","sar":"1.667210223","classification":"C2S1","rsc__meq___l":"0.800657895","classification1":"P.S."},{"sno":"114","district":"KUMURAM BHEEM","mandal":"Rebbena","village":"Rebbena II","temp_id":"1256","long_gis":"79.415972","lat_gis":"19.257","gwl":"9.43","season":"Pre-monsoon 2020","ph":"8.08","ec":"620","tds":"396.8","co3":"0","hco3":"240","cl":"30","f":"0.62","no3":"23.15159091","so4":"9.25","na":"62","k":"2","ca":"32","mg":"24.31","th":"179.9588816","sar":"2.00945003","classification":"C2S1","rsc__meq___l":"1.200822368","classification1":"P.S."},{"sno":"115","district":"KUMURAM BHEEM","mandal":"Tiryani","village":"Tiryani","temp_id":"1260","long_gis":"79.27225","lat_gis":"19.174472","gwl":"","season":"Pre-monsoon 2020","ph":"8.24","ec":"788","tds":"504.32","co3":"0","hco3":"250","cl":"70","f":"0.54","no3":"22.145","so4":"17","na":"77","k":"4","ca":"40","mg":"34.034","th":"219.9506579","sar":"2.257357044","classification":"C3S1","rsc__meq___l":"0.600986842","classification1":"P.S."},{"sno":"116","district":"MAHABUBABAD","mandal":"Dhantalapally","village":"Dhantalapally","temp_id":"1265","long_gis":"79.7347","lat_gis":"17.5147","gwl":"4.89","season":"Pre-monsoon 2020","ph":"8.25","ec":"1260","tds":"806.4","co3":"0","hco3":"330","cl":"140","f":"2.22","no3":"43.88736364","so4":"32","na":"128","k":"4","ca":"56","mg":"48.62","th":"339.9177632","sar":"3.018527964","classification":"C3S1","rsc__meq___l":"-0.198355263","classification1":"P.S."},{"sno":"117","district":"MAHABUBABAD","mandal":"Dornakal","village":"Mannegudem","temp_id":"1268","long_gis":"80.043883","lat_gis":"17.374115","gwl":"7.68","season":"Pre-monsoon 2020","ph":"8.23","ec":"2034","tds":"1301.76","co3":"0","hco3":"360","cl":"340","f":"0.99","no3":"40.66627273","so4":"54.75","na":"203","k":"12","ca":"88","mg":"68.068","th":"499.8848684","sar":"3.947600602","classification":"C3S1","rsc__meq___l":"-2.797697368","classification1":"P.S."},{"sno":"118","district":"MAHABUBABAD","mandal":"Kesamudram","village":"Kesamudram","temp_id":"1273","long_gis":"79.9069","lat_gis":"17.6816","gwl":"4.5","season":"Pre-monsoon 2020","ph":"8.42","ec":"1296","tds":"829.44","co3":"40","hco3":"300","cl":"150","f":"0.62","no3":"44.08868182","so4":"31.5","na":"133","k":"8","ca":"56","mg":"48.62","th":"339.9177632","sar":"3.136439212","classification":"C3S1","rsc__meq___l":"0.001644737","classification1":"P.S."},{"sno":"119","district":"MAHABUBABAD","mandal":"Koravi","village":"Ayyagaripally","temp_id":"1274","long_gis":"79.9886","lat_gis":"17.503","gwl":"3.35","season":"Pre-monsoon 2020","ph":"8.29","ec":"761","tds":"487.04","co3":"0","hco3":"260","cl":"60","f":"1.94","no3":"7.650090909","so4":"22","na":"77","k":"2","ca":"40","mg":"29.172","th":"219.9506579","sar":"2.257357044","classification":"C3S1","rsc__meq___l":"0.800986842","classification1":"P.S."},{"sno":"120","district":"MAHABUBABAD","mandal":"Mahabubabad","village":"Mahabubabad","temp_id":"1281","long_gis":"80.0011","lat_gis":"17.5983","gwl":"5.2","season":"Pre-monsoon 2020","ph":"7.94","ec":"1554","tds":"994.56","co3":"0","hco3":"310","cl":"200","f":"0.74","no3":"42.27681818","so4":"40.75","na":"157","k":"6","ca":"56","mg":"48.62","th":"339.9177632","sar":"3.702413206","classification":"C3S1","rsc__meq___l":"-0.598355263","classification1":"P.S."},{"sno":"121","district":"MAHABUBABAD","mandal":"Marripeda","village":"Marripeda","temp_id":"1283","long_gis":"79.8941","lat_gis":"17.3852","gwl":"7","season":"Pre-monsoon 2020","ph":"8.24","ec":"1408","tds":"901.12","co3":"0","hco3":"300","cl":"160","f":"1.71","no3":"36.63990909","so4":"39.75","na":"143","k":"7","ca":"56","mg":"38.896","th":"299.9342105","sar":"3.590006206","classification":"C3S1","rsc__meq___l":"0.001315789","classification1":"P.S."},{"sno":"122","district":"MAHABUBABAD","mandal":"Nellikudur","village":"Nellikudur","temp_id":"1287","long_gis":"79.7597","lat_gis":"17.5897","gwl":"4.9","season":"Pre-monsoon 2020","ph":"8.21","ec":"892","tds":"570.88","co3":"0","hco3":"230","cl":"100","f":"1.92","no3":"39.25704545","so4":"24","na":"90","k":"4","ca":"40","mg":"34.034","th":"239.9424342","sar":"2.526161682","classification":"C3S1","rsc__meq___l":"-0.198848684","classification1":"P.S."},{"sno":"123","district":"MAHABUBABAD","mandal":"Torrur","village":"Torrur","temp_id":"1291","long_gis":"79.6611","lat_gis":"17.5836","gwl":"7.37","season":"Pre-monsoon 2020","ph":"7.98","ec":"391","tds":"250.24","co3":"0","hco3":"100","cl":"20","f":"0.18","no3":"5.032954545","so4":"17.25","na":"33","k":"1","ca":"8","mg":"14.586","th":"79.97532895","sar":"1.604383128","classification":"C2S1","rsc__meq___l":"0.400493421","classification1":"P.S."},{"sno":"124","district":"MAHABUBNAGAR","mandal":"Bhoothpur","village":"Elkicherla","temp_id":"1294","long_gis":"78.116","lat_gis":"16.623","gwl":"13.84","season":"Pre-monsoon 2020","ph":"8.72","ec":"676","tds":"432.64","co3":"50","hco3":"190","cl":"60","f":"1.54","no3":"14.34996","so4":"16","na":"74","k":"1.21","ca":"24","mg":"34.034","th":"199.9424342","sar":"2.275366691","classification":"C2S1","rsc__meq___l":"0.801151316","classification1":"P.S."},{"sno":"125","district":"MAHABUBNAGAR","mandal":"CC Kunta","village":"Damagnapur","temp_id":"1295","long_gis":"77.7554","lat_gis":"16.4997","gwl":"5.57","season":"Pre-monsoon 2020","ph":"8.18","ec":"1869","tds":"1196.16","co3":"0","hco3":"480","cl":"270","f":"1.19","no3":"45.97302","so4":"32","na":"234","k":"3.1","ca":"40","mg":"87.516","th":"459.8519737","sar":"4.744374838","classification":"C3S1","rsc__meq___l":"0.402960526","classification1":"P.S."},{"sno":"126","district":"MAHABUBNAGAR","mandal":"CC Kunta","village":"Kurumurthy","temp_id":"1296","long_gis":"77.816757","lat_gis":"16.441442","gwl":"21.68","season":"Pre-monsoon 2020","ph":"8.23","ec":"1048","tds":"670.72","co3":"0","hco3":"120","cl":"220","f":"1.76","no3":"75.07155","so4":"19","na":"84","k":"20.27","ca":"80","mg":"29.172","th":"319.9506579","sar":"2.041784705","classification":"C3S1","rsc__meq___l":"-3.999013158","classification1":"P.S."},{"sno":"127","district":"MAHABUBNAGAR","mandal":"CC Kunta","village":"Thirmalapur","temp_id":"1297","long_gis":"77.824269","lat_gis":"16.48271","gwl":"8.4","season":"Pre-monsoon 2020","ph":"8.32","ec":"1245","tds":"796.8","co3":"10","hco3":"220","cl":"210","f":"1.1","no3":"0.026574","so4":"46","na":"147","k":"4.5","ca":"48","mg":"38.896","th":"279.9342105","sar":"3.819983706","classification":"C3S1","rsc__meq___l":"-0.998684211","classification1":"P.S."},{"sno":"128","district":"MAHABUBNAGAR","mandal":"Devarkadara","village":"Devarakadra","temp_id":"1300","long_gis":"77.832836","lat_gis":"16.6058","gwl":"14.26","season":"Pre-monsoon 2020","ph":"9.06","ec":"1696","tds":"1085.44","co3":"80","hco3":"400","cl":"200","f":"2.61","no3":"14.88144","so4":"44","na":"310","k":"1.2","ca":"8","mg":"43.758","th":"199.9259868","sar":"9.532333618","classification":"C3S2","rsc__meq___l":"5.601480263","classification1":"U.S."},{"sno":"129","district":"MAHABUBNAGAR","mandal":"Hanwada","village":"Hanwada","temp_id":"1304","long_gis":"77.897252","lat_gis":"16.808381","gwl":"20.08","season":"Pre-monsoon 2020","ph":"8.29","ec":"2048","tds":"1310.72","co3":"0","hco3":"160","cl":"420","f":"0.4","no3":"164.98025","so4":"37","na":"117","k":"4.36","ca":"104","mg":"102.102","th":"679.8273026","sar":"1.951006537","classification":"C3S1","rsc__meq___l":"-10.39654605","classification1":"P.S."},{"sno":"130","district":"MAHABUBNAGAR","mandal":"Jadcherla","village":"Jadcherla","temp_id":"1305","long_gis":"78.122404","lat_gis":"16.774181","gwl":"19.55","season":"Pre-monsoon 2020","ph":"8.02","ec":"1933","tds":"1237.12","co3":"0","hco3":"210","cl":"400","f":"1.35","no3":"183.8035","so4":"24","na":"80","k":"2.2","ca":"208","mg":"63.206","th":"779.8930921","sar":"1.24550253","classification":"C3S1","rsc__meq___l":"-11.39786184","classification1":"P.S."},{"sno":"131","district":"MAHABUBNAGAR","mandal":"Koilkonda","village":"Dammaipally","temp_id":"1307","long_gis":"77.89946","lat_gis":"16.759993","gwl":"11.91","season":"Pre-monsoon 2020","ph":"8.48","ec":"1163","tds":"744.32","co3":"30","hco3":"120","cl":"240","f":"0.59","no3":"85.9226","so4":"22","na":"115","k":"2.92","ca":"56","mg":"48.62","th":"339.9177632","sar":"2.711958717","classification":"C3S1","rsc__meq___l":"-3.798355263","classification1":"P.S."},{"sno":"132","district":"MAHABUBNAGAR","mandal":"Mahabubnagar (R)","village":"Kodur","temp_id":"1312","long_gis":"77.924","lat_gis":"16.68","gwl":"12.53","season":"Pre-monsoon 2020","ph":"8.59","ec":"962","tds":"615.68","co3":"30","hco3":"240","cl":"160","f":"1.3","no3":"21.48065","so4":"13","na":"165","k":"10.8","ca":"16","mg":"29.172","th":"159.9506579","sar":"5.672350949","classification":"C3S1","rsc__meq___l":"2.200986842","classification1":"MR"},{"sno":"133","district":"MAHABUBNAGAR","mandal":"Mahabubnagar(U)","village":"Yenugonda","temp_id":"1313","long_gis":"78.020981","lat_gis":"16.761294","gwl":"22.5","season":"Pre-monsoon 2020","ph":"8.38","ec":"1767","tds":"1130.88","co3":"10","hco3":"250","cl":"330","f":"1.55","no3":"94.51486","so4":"40","na":"163","k":"32.6","ca":"64","mg":"77.792","th":"479.8684211","sar":"3.235181741","classification":"C3S1","rsc__meq___l":"-4.397368421","classification1":"P.S."},{"sno":"134","district":"MAHABUBNAGAR","mandal":"Midjil","village":"Kothapalli","temp_id":"1316","long_gis":"78.2315","lat_gis":"16.7506","gwl":"10.77","season":"Pre-monsoon 2020","ph":"8.19","ec":"1351","tds":"864.64","co3":"0","hco3":"130","cl":"260","f":"0.8","no3":"153.11053","so4":"26","na":"62","k":"5.35","ca":"104","mg":"63.206","th":"519.8930921","sar":"1.182243214","classification":"C3S1","rsc__meq___l":"-7.797861842","classification1":"P.S."},{"sno":"135","district":"MAHABUBNAGAR","mandal":"Nawabpet","village":"Nawabpet","temp_id":"1323","long_gis":"78.0239","lat_gis":"16.888","gwl":"7.99","season":"Pre-monsoon 2020","ph":"8.15","ec":"1773","tds":"1134.72","co3":"0","hco3":"130","cl":"430","f":"2.04","no3":"50.4906","so4":"35","na":"171","k":"1.3","ca":"112","mg":"48.62","th":"479.9177632","sar":"3.39378919","classification":"C3S1","rsc__meq___l":"-6.998355263","classification1":"P.S."},{"sno":"136","district":"MANCHERIAL","mandal":"Bellampally","village":"Bellampally I","temp_id":"1329","long_gis":"79.503111","lat_gis":"19.072027","gwl":"15.35","season":"Pre-monsoon 2020","ph":"8.01","ec":"695","tds":"444.8","co3":"0","hco3":"150","cl":"100","f":"0.37","no3":"22.54763636","so4":"12","na":"56","k":"2","ca":"16","mg":"38.896","th":"199.9342105","sar":"1.72193453","classification":"C2S1","rsc__meq___l":"-0.998684211","classification1":"P.S."},{"sno":"137","district":"MANCHERIAL","mandal":"Chennur","village":"Chennur I","temp_id":"1331","long_gis":"79.780222","lat_gis":"18.852222","gwl":"8.15","season":"Pre-monsoon 2020","ph":"7.94","ec":"576","tds":"368.64","co3":"0","hco3":"150","cl":"80","f":"0.83","no3":"11.87777273","so4":"10.5","na":"57","k":"3","ca":"16","mg":"29.172","th":"159.9506579","sar":"1.959539419","classification":"C2S1","rsc__meq___l":"-0.199013158","classification1":"P.S."},{"sno":"138","district":"MANCHERIAL","mandal":"Jaipur","village":"Jaipur","temp_id":"1335","long_gis":"79.579972","lat_gis":"18.844277","gwl":"3.9","season":"Pre-monsoon 2020","ph":"7.66","ec":"543","tds":"347.52","co3":"0","hco3":"100","cl":"50","f":"0.14","no3":"84.95627273","so4":"17.25","na":"27","k":"16","ca":"40","mg":"19.448","th":"179.9671053","sar":"0.875063084","classification":"C2S1","rsc__meq___l":"-1.599342105","classification1":"P.S."},{"sno":"139","district":"MANCHERIAL","mandal":"Mandamarri","village":"Mandamarri","temp_id":"1342","long_gis":"79.477854","lat_gis":"18.978679","gwl":"5.9","season":"Pre-monsoon 2020","ph":"8.09","ec":"1151","tds":"736.64","co3":"0","hco3":"190","cl":"200","f":"0.31","no3":"14.89754545","so4":"49.75","na":"117","k":"4","ca":"48","mg":"38.896","th":"279.9342105","sar":"3.040395195","classification":"C3S1","rsc__meq___l":"-1.798684211","classification1":"P.S."},{"sno":"140","district":"MANCHERIAL","mandal":"Tandur","village":"Tandur","temp_id":"1345","long_gis":"79.456254","lat_gis":"19.157871","gwl":"13.3","season":"Pre-monsoon 2020","ph":"8.3","ec":"2142","tds":"1370.88","co3":"20","hco3":"370","cl":"210","f":"0.62","no3":"171.3217727","so4":"50.75","na":"216","k":"89","ca":"16","mg":"63.206","th":"299.8930921","sar":"5.423038455","classification":"C3S1","rsc__meq___l":"1.802138158","classification1":"MR"},{"sno":"141","district":"MANCHERIAL","mandal":"Vemanpally","village":"Neelwai","temp_id":"1346","long_gis":"79.81505","lat_gis":"19.04799","gwl":"1.7","season":"Pre-monsoon 2020","ph":"7.46","ec":"464","tds":"296.96","co3":"0","hco3":"170","cl":"50","f":"0.51","no3":"1.811863636","so4":"7.25","na":"49","k":"5","ca":"32","mg":"14.586","th":"139.9753289","sar":"1.80070469","classification":"C2S1","rsc__meq___l":"0.600493421","classification1":"P.S."},{"sno":"142","district":"MEDAK","mandal":"Chegunta","village":"Chegunta","temp_id":"1348","long_gis":"78.5186","lat_gis":"17.9341","gwl":"18.1","season":"Pre-monsoon 2020","ph":"7.78","ec":"862","tds":"551.68","co3":"0","hco3":"360","cl":"40","f":"2.01","no3":"17.67171","so4":"7.45","na":"98.04","k":"4.31","ca":"32","mg":"34.034","th":"219.9424342","sar":"2.87422626","classification":"C3S1","rsc__meq___l":"2.801151316","classification1":"U.S."},{"sno":"143","district":"MEDAK","mandal":"Havelighanpur","village":"Mutayapally","temp_id":"1350","long_gis":"78.2189","lat_gis":"18.0845","gwl":"13.65","season":"Pre-monsoon 2020","ph":"7.83","ec":"1026","tds":"656.64","co3":"0","hco3":"280","cl":"130","f":"0.83","no3":"33.6604","so4":"13.25","na":"106.47","k":"3.22","ca":"56","mg":"34.034","th":"279.9424342","sar":"2.766718988","classification":"C3S1","rsc__meq___l":"0.001151316","classification1":"P.S."},{"sno":"144","district":"MEDAK","mandal":"Kulcharam","village":"Rangampet","temp_id":"1353","long_gis":"78.1176","lat_gis":"17.9451","gwl":"39.1","season":"Pre-monsoon 2020","ph":"7.82","ec":"998","tds":"638.72","co3":"0","hco3":"320","cl":"110","f":"0.58","no3":"14.39425","so4":"10.08","na":"79.31","k":"3.42","ca":"56","mg":"43.758","th":"319.9259868","sar":"1.927859388","classification":"C3S1","rsc__meq___l":"0.001480263","classification1":"P.S."},{"sno":"145","district":"MEDAK","mandal":"Medak","village":"Medak","temp_id":"1354","long_gis":"78.2708","lat_gis":"18.0528","gwl":"18.4","season":"Pre-monsoon 2020","ph":"7.47","ec":"2015","tds":"1289.6","co3":"0","hco3":"290","cl":"280","f":"0.73","no3":"298.9575","so4":"23.7","na":"177.8","k":"6.3","ca":"192","mg":"19.448","th":"559.9671053","sar":"3.266800872","classification":"C3S1","rsc__meq___l":"-5.399342105","classification1":"P.S."},{"sno":"146","district":"MEDAK","mandal":"Narasapur","village":"Narasapur","temp_id":"1356","long_gis":"78.2819","lat_gis":"17.735","gwl":"33","season":"Pre-monsoon 2020","ph":"8.22","ec":"1162","tds":"743.68","co3":"0","hco3":"230","cl":"220","f":"0.81","no3":"19.26615","so4":"12.25","na":"96.77","k":"3.32","ca":"48","mg":"58.344","th":"359.9013158","sar":"2.217793916","classification":"C3S1","rsc__meq___l":"-2.598026316","classification1":"P.S."},{"sno":"147","district":"MEDAK","mandal":"Narasapur","village":"Reddypally","temp_id":"1357","long_gis":"78.2633","lat_gis":"17.7856","gwl":"24.4","season":"Pre-monsoon 2020","ph":"7.48","ec":"2470","tds":"1580.8","co3":"0","hco3":"490","cl":"440","f":"0.84","no3":"86.8084","so4":"38.25","na":"237.4","k":"7.1","ca":"128","mg":"97.24","th":"719.8355263","sar":"3.847124492","classification":"C4S1","rsc__meq___l":"-4.596710526","classification1":"P.S."},{"sno":"148","district":"MEDAK","mandal":"Papannapet","village":"Papannapet","temp_id":"1359","long_gis":"78.085354","lat_gis":"18.04217","gwl":"31.2","season":"Pre-monsoon 2020","ph":"7.68","ec":"1250","tds":"800","co3":"0","hco3":"490","cl":"60","f":"0.79","no3":"19.26615","so4":"24.6","na":"75.2","k":"2.23","ca":"80","mg":"63.206","th":"459.8930921","sar":"1.524619821","classification":"C3S1","rsc__meq___l":"0.602138158","classification1":"P.S."},{"sno":"150","district":"MEDAK","mandal":"Shankarampet","village":"Gavvalapalli","temp_id":"1361","long_gis":"77.9172","lat_gis":"18.0517","gwl":"10.1","season":"Pre-monsoon 2020","ph":"8.75","ec":"768","tds":"491.52","co3":"30","hco3":"130","cl":"120","f":"1.1","no3":"28.47847","so4":"15.5","na":"79.67","k":"1.76","ca":"24","mg":"34.034","th":"199.9424342","sar":"2.449708976","classification":"C3S1","rsc__meq___l":"-0.798848684","classification1":"P.S."},{"sno":"151","district":"MEDAK","mandal":"Shankarampet R","village":"Shankarampet","temp_id":"1362","long_gis":"78.372","lat_gis":"17.971","gwl":"26.5","season":"Pre-monsoon 2020","ph":"7.51","ec":"3047","tds":"1950.08","co3":"0","hco3":"370","cl":"600","f":"0.62","no3":"230.7509","so4":"44.38","na":"259.4","k":"3.9","ca":"200","mg":"97.24","th":"899.8355263","sar":"3.759763851","classification":"C4S1","rsc__meq___l":"-10.59671053","classification1":"P.S."},{"sno":"152","district":"MEDAK","mandal":"Shivampet","village":"Shivampet","temp_id":"1364","long_gis":"78.37","lat_gis":"17.7863","gwl":"31.3","season":"Pre-monsoon 2020","ph":"7.84","ec":"899","tds":"575.36","co3":"0","hco3":"220","cl":"120","f":"0.81","no3":"32.95176","so4":"16.7","na":"54.91","k":"3.08","ca":"64","mg":"38.896","th":"319.9342105","sar":"1.334729523","classification":"C3S1","rsc__meq___l":"-1.998684211","classification1":"P.S."},{"sno":"153","district":"MEDAK","mandal":"Shivampet","village":"Gudur","temp_id":"1363","long_gis":"78.3674","lat_gis":"17.7817","gwl":"32","season":"Pre-monsoon 2020","ph":"7.47","ec":"1909","tds":"1221.76","co3":"0","hco3":"190","cl":"430","f":"0.76","no3":"128.441","so4":"32.5","na":"115","k":"5.7","ca":"120","mg":"92.378","th":"679.84375","sar":"1.917632801","classification":"C3S1","rsc__meq___l":"-9.796875","classification1":"P.S."},{"sno":"154","district":"MEDAK","mandal":"Shivampet","village":"Usrikapally","temp_id":"1365","long_gis":"78.3949","lat_gis":"17.8211","gwl":"24.8","season":"Pre-monsoon 2020","ph":"7.73","ec":"1217","tds":"778.88","co3":"0","hco3":"310","cl":"190","f":"0.86","no3":"16.69733","so4":"16.6","na":"107.6","k":"1.27","ca":"64","mg":"53.482","th":"379.9095395","sar":"2.400182892","classification":"C3S1","rsc__meq___l":"-1.398190789","classification1":"P.S."},{"sno":"155","district":"MEDAK","mandal":"Tekmal","village":"Tekmal","temp_id":"1366","long_gis":"78.0304","lat_gis":"17.9754","gwl":"37.8","season":"Pre-monsoon 2020","ph":"7.75","ec":"1179","tds":"754.56","co3":"0","hco3":"400","cl":"110","f":"0.65","no3":"32.73031","so4":"14.18","na":"89.72","k":"2.92","ca":"64","mg":"58.344","th":"399.9013158","sar":"1.950675424","classification":"C3S1","rsc__meq___l":"0.001973684","classification1":"P.S."},{"sno":"156","district":"MEDAK","mandal":"Toopran","village":"Islampur","temp_id":"1367","long_gis":"78.4746","lat_gis":"17.8772","gwl":"15.95","season":"Pre-monsoon 2020","ph":"7.52","ec":"872","tds":"558.08","co3":"0","hco3":"230","cl":"130","f":"1.41","no3":"18.07032","so4":"12.55","na":"50.92","k":"1.32","ca":"80","mg":"34.034","th":"339.9424342","sar":"1.200764581","classification":"C3S1","rsc__meq___l":"-2.198848684","classification1":"P.S."},{"sno":"157","district":"MEDAK","mandal":"Toopran","village":"Toopran","temp_id":"1368","long_gis":"78.4775","lat_gis":"17.8413","gwl":"13.7","season":"Pre-monsoon 2020","ph":"7.4","ec":"2535","tds":"1622.4","co3":"0","hco3":"260","cl":"590","f":"0.34","no3":"133.7558","so4":"43.38","na":"169.2","k":"5.9","ca":"200","mg":"92.378","th":"879.84375","sar":"2.480103162","classification":"C4S1","rsc__meq___l":"-12.396875","classification1":"P.S."},{"sno":"158","district":"MEDAK","mandal":"Yeldurthy","village":"Edulapally","temp_id":"1369","long_gis":"78.3492","lat_gis":"17.9672","gwl":"24.4","season":"Pre-monsoon 2020","ph":"8.07","ec":"921","tds":"589.44","co3":"0","hco3":"180","cl":"170","f":"0.94","no3":"18.20319","so4":"17.55","na":"89.13","k":"1.33","ca":"56","mg":"29.172","th":"259.9506579","sar":"2.403535882","classification":"C3S1","rsc__meq___l":"-1.599013158","classification1":"P.S."},{"sno":"160","district":"MEDAK","mandal":"Yeldurthy","village":"Ramayapally","temp_id":"1371","long_gis":"78.3213","lat_gis":"17.9453","gwl":"14.2","season":"Pre-monsoon 2020","ph":"8.03","ec":"655","tds":"419.2","co3":"0","hco3":"280","cl":"20","f":"0.89","no3":"11.38253","so4":"10.7","na":"42.02","k":"0.94","ca":"56","mg":"24.31","th":"239.9588816","sar":"1.179396399","classification":"C2S1","rsc__meq___l":"0.800822368","classification1":"P.S."},{"sno":"161","district":"MEDCHAL","mandal":"Alwal","village":"Old Alwal","temp_id":"1374","long_gis":"78.508","lat_gis":"17.494","gwl":"7.54","season":"Pre-monsoon 2020","ph":"8.04","ec":"992","tds":"634.88","co3":"0","hco3":"300","cl":"110","f":"0.79","no3":"21.56923","so4":"21","na":"55","k":"1","ca":"72","mg":"48.62","th":"379.9177632","sar":"1.226846007","classification":"C3S1","rsc__meq___l":"-1.598355263","classification1":"P.S."},{"sno":"162","district":"MEDCHAL","mandal":"Balanagar","village":"Balanagar 1","temp_id":"1376","long_gis":"78.45","lat_gis":"17.47","gwl":"10.12","season":"Pre-monsoon 2020","ph":"7.68","ec":"2309","tds":"1477.76","co3":"0","hco3":"580","cl":"400","f":"2","no3":"47.3903","so4":"24","na":"360","k":"2","ca":"56","mg":"72.93","th":"439.8766447","sar":"7.462927333","classification":"C4S2","rsc__meq___l":"2.802467105","classification1":"U.S."},{"sno":"163","district":"MEDCHAL","mandal":"Kukatpally","village":"Kaithalapur","temp_id":"1389","long_gis":"78.4","lat_gis":"17.47","gwl":"9.33","season":"Pre-monsoon 2020","ph":"8.01","ec":"449","tds":"287.36","co3":"0","hco3":"130","cl":"50","f":"0.49","no3":"0.17716","so4":"12","na":"42","k":"4","ca":"32","mg":"9.724","th":"119.9835526","sar":"1.667095948","classification":"C2S1","rsc__meq___l":"0.200328947","classification1":"P.S."},{"sno":"164","district":"MEDCHAL","mandal":"Kukatpally","village":"Kukatpally 1","temp_id":"1387","long_gis":"78.397","lat_gis":"17.481","gwl":"29.03","season":"Pre-monsoon 2020","ph":"7.89","ec":"1801","tds":"1152.64","co3":"0","hco3":"460","cl":"240","f":"1.1","no3":"110.725","so4":"8","na":"265","k":"9.6","ca":"72","mg":"43.758","th":"359.9259868","sar":"6.073114034","classification":"C3S1","rsc__meq___l":"2.001480263","classification1":"MR"},{"sno":"165","district":"MEDCHAL","mandal":"Malkajgiri","village":"Malkajgiri","temp_id":"1390","long_gis":"78.535","lat_gis":"17.449","gwl":"25.87","season":"Pre-monsoon 2020","ph":"8.2","ec":"558","tds":"357.12","co3":"0","hco3":"130","cl":"100","f":"1.96","no3":"18.24748","so4":"14","na":"60","k":"1.72","ca":"48","mg":"14.586","th":"179.9753289","sar":"1.944540202","classification":"C2S1","rsc__meq___l":"-0.999506579","classification1":"P.S."},{"sno":"166","district":"MEDCHAL","mandal":"Qutubullapur","village":"Gajularamaram 2","temp_id":"1396","long_gis":"78.42","lat_gis":"17.53","gwl":"5.52","season":"Pre-monsoon 2020","ph":"7.79","ec":"1025","tds":"656","co3":"0","hco3":"360","cl":"90","f":"0.89","no3":"31.93309","so4":"19","na":"112","k":"1","ca":"88","mg":"19.448","th":"299.9671053","sar":"2.811598938","classification":"C3S1","rsc__meq___l":"1.200657895","classification1":"P.S."},{"sno":"168","district":"MEDCHAL","mandal":"Qutubullapur","village":"Qutubullapur 2","temp_id":"1399","long_gis":"78.46","lat_gis":"17.5","gwl":"33.82","season":"Pre-monsoon 2020","ph":"9.08","ec":"1629","tds":"1042.56","co3":"50","hco3":"440","cl":"230","f":"2.4","no3":"1.55015","so4":"16.5","na":"184","k":"3.9","ca":"40","mg":"82.654","th":"439.8601974","sar":"3.814456395","classification":"C3S1","rsc__meq___l":"1.002796053","classification1":"P.S."},{"sno":"169","district":"MEDCHAL","mandal":"Qutubullapur","village":"Shapurnagar","temp_id":"1394","long_gis":"78.44","lat_gis":"17.54","gwl":"","season":"Pre-monsoon 2020","ph":"7.85","ec":"1709","tds":"1093.76","co3":"0","hco3":"590","cl":"200","f":"1.34","no3":"2.34737","so4":"25","na":"172","k":"3","ca":"80","mg":"87.516","th":"559.8519737","sar":"3.160559743","classification":"C3S1","rsc__meq___l":"0.602960526","classification1":"P.S."},{"sno":"170","district":"MULUGU","mandal":"Eturu Nagaram","village":"Eturu Nagaram (D)","temp_id":"3040","long_gis":"80.440017","lat_gis":"18.359652","gwl":"14.2","season":"Pre-monsoon 2020","ph":"7.32","ec":"102","tds":"65.28","co3":"0","hco3":"30","cl":"20","f":"0.04","no3":"1.207909091","so4":"4.25","na":"10","k":"1","ca":"16","mg":"4.862","th":"59.99177632","sar":"0.561340405","classification":"C1S1","rsc__meq___l":"-0.599835526","classification1":"P.S."},{"sno":"172","district":"MULUGU","mandal":"Govindaraopet","village":"Pasra","temp_id":"1051","long_gis":"80.171524","lat_gis":"18.207438","gwl":"5.83","season":"Pre-monsoon 2020","ph":"7.7","ec":"1780","tds":"1139.2","co3":"0","hco3":"220","cl":"280","f":"0.28","no3":"95.62613636","so4":"29.25","na":"140","k":"5","ca":"112","mg":"58.344","th":"519.9013158","sar":"2.669560338","classification":"C3S1","rsc__meq___l":"-5.998026316","classification1":"P.S."},{"sno":"173","district":"MULUGU","mandal":"Govindaraopet","village":"Project Nagar","temp_id":"1052","long_gis":"80.1944","lat_gis":"18.2616","gwl":"5.87","season":"Pre-monsoon 2020","ph":"7.49","ec":"1225","tds":"784","co3":"0","hco3":"420","cl":"160","f":"0.98","no3":"0.805272727","so4":"28.25","na":"192","k":"18","ca":"48","mg":"53.482","th":"339.9095395","sar":"4.527846717","classification":"C3S1","rsc__meq___l":"1.601809211","classification1":"MR"},{"sno":"174","district":"NAGARKURNOOL","mandal":"Amarabad","village":"Domalapenta","temp_id":"1406","long_gis":"78.87839","lat_gis":"16.211577","gwl":"6.2","season":"Pre-monsoon 2020","ph":"7.5","ec":"880","tds":"563.2","co3":"0","hco3":"210","cl":"120","f":"0.23","no3":"48.2761","so4":"16","na":"36","k":"19","ca":"96","mg":"19.448","th":"319.9671053","sar":"0.875028098","classification":"C3S1","rsc__meq___l":"-2.199342105","classification1":"P.S."},{"sno":"175","district":"NAGARKURNOOL","mandal":"Balmur","village":"Balmur","temp_id":"1410","long_gis":"78.566382","lat_gis":"16.331127","gwl":"21.27","season":"Pre-monsoon 2020","ph":"8.81","ec":"1174","tds":"751.36","co3":"30","hco3":"440","cl":"70","f":"2.16","no3":"8.23794","so4":"9","na":"117","k":"2.37","ca":"80","mg":"24.31","th":"299.9588816","sar":"2.93715701","classification":"C3S1","rsc__meq___l":"3.400822368","classification1":"U.S."},{"sno":"176","district":"NAGARKURNOOL","mandal":"Bijinepalli","village":"Bijinepalli","temp_id":"1413","long_gis":"78.196422","lat_gis":"16.535278","gwl":"17.06","season":"Pre-monsoon 2020","ph":"7.4","ec":"1411","tds":"903.04","co3":"0","hco3":"380","cl":"220","f":"0.6","no3":"35.432","so4":"24","na":"55","k":"2","ca":"136","mg":"68.068","th":"619.8848684","sar":"0.960460118","classification":"C3S1","rsc__meq___l":"-4.797697368","classification1":"P.S."},{"sno":"177","district":"NAGARKURNOOL","mandal":"Kalwakuthy","village":"Kalwakuthy","temp_id":"1414","long_gis":"78.488","lat_gis":"16.667","gwl":"14.37","season":"Pre-monsoon 2020","ph":"7.56","ec":"1713","tds":"1096.32","co3":"0","hco3":"360","cl":"290","f":"1.15","no3":"112.0537","so4":"30","na":"72","k":"2","ca":"152","mg":"82.654","th":"719.8601974","sar":"1.166757443","classification":"C3S1","rsc__meq___l":"-7.197203947","classification1":"P.S."},{"sno":"178","district":"NAGARKURNOOL","mandal":"Kodair","village":"Kodair","temp_id":"1417","long_gis":"78.274343","lat_gis":"16.269624","gwl":"1.76","season":"Pre-monsoon 2020","ph":"7.92","ec":"1615","tds":"1033.6","co3":"0","hco3":"430","cl":"230","f":"1.09","no3":"74.8501","so4":"30","na":"98","k":"1","ca":"72","mg":"116.688","th":"659.8026316","sar":"1.658789272","classification":"C3S1","rsc__meq___l":"-4.596052632","classification1":"P.S."},{"sno":"179","district":"NAGARKURNOOL","mandal":"Kollapur","village":"Kollapur","temp_id":"1419","long_gis":"78.306","lat_gis":"16.107","gwl":"3.35","season":"Pre-monsoon 2020","ph":"7.69","ec":"3072","tds":"1966.08","co3":"0","hco3":"290","cl":"820","f":"0.57","no3":"25.2453","so4":"56","na":"278","k":"0.6","ca":"176","mg":"131.274","th":"979.7779605","sar":"3.861474106","classification":"C4S1","rsc__meq___l":"-13.79555921","classification1":"P.S."},{"sno":"180","district":"NAGARKURNOOL","mandal":"Lingal","village":"Ambatipally","temp_id":"1421","long_gis":"78.446","lat_gis":"16.277","gwl":"4.18","season":"Pre-monsoon 2020","ph":"7.84","ec":"1705","tds":"1091.2","co3":"0","hco3":"380","cl":"290","f":"1.17","no3":"1.72731","so4":"35","na":"115","k":"2","ca":"112","mg":"77.792","th":"599.8684211","sar":"2.041465309","classification":"C3S1","rsc__meq___l":"-4.397368421","classification1":"P.S."},{"sno":"181","district":"NAGARKURNOOL","mandal":"Nagarkurnool","village":"Nagarkurnool","temp_id":"1424","long_gis":"78.302619","lat_gis":"16.491743","gwl":"21.16","season":"Pre-monsoon 2020","ph":"7.8","ec":"1590","tds":"1017.6","co3":"0","hco3":"380","cl":"240","f":"1.46","no3":"93.009","so4":"24","na":"72","k":"0.72","ca":"144","mg":"72.93","th":"659.8766447","sar":"1.218633974","classification":"C3S1","rsc__meq___l":"-5.597532895","classification1":"P.S."},{"sno":"182","district":"NAGARKURNOOL","mandal":"Telkapally","village":"Telkapally","temp_id":"1428","long_gis":"78.440307","lat_gis":"16.435091","gwl":"2.43","season":"Pre-monsoon 2020","ph":"8.23","ec":"1391","tds":"890.24","co3":"0","hco3":"480","cl":"130","f":"2.29","no3":"0.26574","so4":"15","na":"209","k":"1","ca":"32","mg":"38.896","th":"239.9342105","sar":"5.866409326","classification":"C3S1","rsc__meq___l":"4.801315789","classification1":"U.S."},{"sno":"183","district":"NAGARKURNOOL","mandal":"Thimmajipet","village":"Gummakonda","temp_id":"1429","long_gis":"78.19","lat_gis":"16.6224","gwl":"14.46","season":"Pre-monsoon 2020","ph":"7.99","ec":"1414","tds":"904.96","co3":"0","hco3":"280","cl":"180","f":"0.47","no3":"152.8005","so4":"19","na":"61","k":"0.49","ca":"80","mg":"77.792","th":"519.8684211","sar":"1.163202375","classification":"C3S1","rsc__meq___l":"-4.797368421","classification1":"P.S."},{"sno":"184","district":"NAGARKURNOOL","mandal":"Uppununuthala","village":"Uppununthala","temp_id":"1431","long_gis":"78.591328","lat_gis":"16.450018","gwl":"6.42","season":"Pre-monsoon 2020","ph":"7.8","ec":"2404","tds":"1538.56","co3":"0","hco3":"240","cl":"530","f":"0.3","no3":"167.8591","so4":"54","na":"75","k":"2","ca":"144","mg":"160.446","th":"1019.728618","sar":"1.021153719","classification":"C4S1","rsc__meq___l":"-15.59457237","classification1":"P.S."},{"sno":"185","district":"NAGARKURNOOL","mandal":"Veldanda","village":"Veldanda","temp_id":"1433","long_gis":"78.5211","lat_gis":"16.73106","gwl":"28.35","season":"Pre-monsoon 2020","ph":"7.62","ec":"2592","tds":"1658.88","co3":"0","hco3":"260","cl":"500","f":"0.59","no3":"235.1799","so4":"59","na":"223","k":"3","ca":"208","mg":"53.482","th":"739.9095395","sar":"3.564410495","classification":"C4S1","rsc__meq___l":"-9.598190789","classification1":"P.S."},{"sno":"186","district":"NALGONDA","mandal":"Advidevulapally","village":"Ulsaipalem","temp_id":"1434","long_gis":"79.499703","lat_gis":"16.706822","gwl":"2.47","season":"Pre-monsoon 2020","ph":"8.34","ec":"918","tds":"587.52","co3":"10","hco3":"240","cl":"120","f":"1.25","no3":"19.66476","so4":"20","na":"84","k":"1.87","ca":"32","mg":"48.62","th":"279.9177632","sar":"2.182911961","classification":"C3S1","rsc__meq___l":"-0.598355263","classification1":"P.S."},{"sno":"187","district":"NALGONDA","mandal":"Anumula","village":"Anumula","temp_id":"1435","long_gis":"79.289548","lat_gis":"16.798786","gwl":"11.61","season":"Pre-monsoon 2020","ph":"8.83","ec":"1590","tds":"1017.6","co3":"40","hco3":"550","cl":"60","f":"2.92","no3":"115.5969","so4":"20","na":"322","k":"3.9","ca":"16","mg":"14.586","th":"99.97532895","sar":"14.00172729","classification":"C3S3","rsc__meq___l":"9.800493421","classification1":"U.S."},{"sno":"188","district":"NALGONDA","mandal":"Anumula","village":"Chintagudem","temp_id":"1436","long_gis":"79.292086","lat_gis":"16.833094","gwl":"4.06","season":"Pre-monsoon 2020","ph":"8.17","ec":"1338","tds":"856.32","co3":"0","hco3":"330","cl":"160","f":"1.37","no3":"117.05847","so4":"24","na":"177.7","k":"2.3","ca":"56","mg":"38.896","th":"299.9342105","sar":"4.461147572","classification":"C3S1","rsc__meq___l":"0.601315789","classification1":"P.S."},{"sno":"189","district":"NALGONDA","mandal":"Anumula","village":"Rajavaram","temp_id":"1438","long_gis":"79.407512","lat_gis":"16.68016","gwl":"10.82","season":"Pre-monsoon 2020","ph":"8.32","ec":"967","tds":"618.88","co3":"10","hco3":"130","cl":"190","f":"0.48","no3":"32.15454","so4":"24","na":"85.2","k":"0.68","ca":"56","mg":"34.034","th":"279.9424342","sar":"2.213998852","classification":"C3S1","rsc__meq___l":"-2.798848684","classification1":"P.S."},{"sno":"190","district":"NALGONDA","mandal":"Anumula","village":"Sreerampur","temp_id":"1439","long_gis":"79.304637","lat_gis":"16.729108","gwl":"3.72","season":"Pre-monsoon 2020","ph":"8.49","ec":"691","tds":"442.24","co3":"20","hco3":"210","cl":"50","f":"1.18","no3":"23.87231","so4":"18","na":"83.08","k":"1.73","ca":"24","mg":"24.31","th":"159.9588816","sar":"2.856041228","classification":"C2S1","rsc__meq___l":"1.400822368","classification1":"MR"},{"sno":"191","district":"NALGONDA","mandal":"Chandampet","village":"Chandampet","temp_id":"1440","long_gis":"78.888363","lat_gis":"16.578477","gwl":"11.27","season":"Pre-monsoon 2020","ph":"8.4","ec":"1014","tds":"648.96","co3":"20","hco3":"160","cl":"190","f":"2.1","no3":"45.57441","so4":"27","na":"159.3","k":"16.1","ca":"24","mg":"24.31","th":"159.9588816","sar":"5.476256231","classification":"C3S1","rsc__meq___l":"0.400822368","classification1":"P.S."},{"sno":"192","district":"NALGONDA","mandal":"Chandur","village":"Angadipet","temp_id":"1517","long_gis":"79.018416","lat_gis":"16.984083","gwl":"13.44","season":"Pre-monsoon 2020","ph":"8.14","ec":"1604","tds":"1026.56","co3":"0","hco3":"140","cl":"320","f":"0.41","no3":"213.21206","so4":"36","na":"110","k":"9.88","ca":"88","mg":"82.654","th":"559.8601974","sar":"2.021273363","classification":"C3S1","rsc__meq___l":"-8.397203947","classification1":"P.S."},{"sno":"193","district":"NALGONDA","mandal":"Chandur","village":"Bangarigadda","temp_id":"1446","long_gis":"79.011361","lat_gis":"16.984666","gwl":"13.04","season":"Pre-monsoon 2020","ph":"8.8","ec":"1494","tds":"956.16","co3":"30","hco3":"550","cl":"90","f":"2.38","no3":"34.72336","so4":"15","na":"287.6","k":"4.4","ca":"32","mg":"14.586","th":"139.9753289","sar":"10.56903406","classification":"C3S2","rsc__meq___l":"8.800493421","classification1":"U.S."},{"sno":"194","district":"NALGONDA","mandal":"Chandur","village":"Chandur","temp_id":"1447","long_gis":"79.0601","lat_gis":"16.9681","gwl":"14.54","season":"Pre-monsoon 2020","ph":"7.71","ec":"2585","tds":"1654.4","co3":"0","hco3":"390","cl":"480","f":"1.32","no3":"224.9932","so4":"33","na":"181.9","k":"3.4","ca":"104","mg":"155.584","th":"899.7368421","sar":"2.636617383","classification":"C4S1","rsc__meq___l":"-10.19473684","classification1":"P.S."},{"sno":"195","district":"NALGONDA","mandal":"Chandur","village":"Sirdepally","temp_id":"1452","long_gis":"79.063083","lat_gis":"17.014888","gwl":"12.67","season":"Pre-monsoon 2020","ph":"8.34","ec":"1128","tds":"721.92","co3":"10","hco3":"400","cl":"90","f":"2.04","no3":"18.82325","so4":"12","na":"96.4","k":"2.4","ca":"8","mg":"82.654","th":"359.8601974","sar":"2.2094404","classification":"C3S1","rsc__meq___l":"1.002796053","classification1":"P.S."},{"sno":"197","district":"NALGONDA","mandal":"Devarakonda","village":"Padamtipally","temp_id":"1459","long_gis":"78.797379","lat_gis":"16.67664","gwl":"13.84","season":"Pre-monsoon 2020","ph":"8.44","ec":"528","tds":"337.92","co3":"20","hco3":"100","cl":"30","f":"0.98","no3":"113.8253","so4":"7","na":"20","k":"3.67","ca":"40","mg":"29.172","th":"219.9506579","sar":"0.586326505","classification":"C2S1","rsc__meq___l":"-1.999013158","classification1":"P.S."},{"sno":"199","district":"NALGONDA","mandal":"Gundlapally","village":"Vavikole","temp_id":"1461","long_gis":"78.76505","lat_gis":"16.675791","gwl":"6.77","season":"Pre-monsoon 2020","ph":"9.37","ec":"2393","tds":"1531.52","co3":"40","hco3":"950","cl":"130","f":"3.39","no3":"11.86972","so4":"15","na":"486","k":"3.9","ca":"24","mg":"24.31","th":"159.9588816","sar":"16.7072224","classification":"C4S3","rsc__meq___l":"16.60082237","classification1":"U.S."},{"sno":"200","district":"NALGONDA","mandal":"Gurrampode","village":"Gurrampode","temp_id":"1463","long_gis":"79.091378","lat_gis":"16.851709","gwl":"2.97","season":"Pre-monsoon 2020","ph":"8.41","ec":"793","tds":"507.52","co3":"20","hco3":"110","cl":"160","f":"0.23","no3":"0.314459","so4":"31","na":"68.96","k":"0.63","ca":"64","mg":"19.448","th":"239.9671053","sar":"1.935501715","classification":"C3S1","rsc__meq___l":"-2.199342105","classification1":"P.S."},{"sno":"201","district":"NALGONDA","mandal":"Gurrampode","village":"Koppole","temp_id":"1464","long_gis":"79.146882","lat_gis":"16.914619","gwl":"2.17","season":"Pre-monsoon 2020","ph":"8.22","ec":"1509","tds":"965.76","co3":"0","hco3":"350","cl":"230","f":"2.02","no3":"56.82407","so4":"25","na":"179.3","k":"1.8","ca":"48","mg":"58.344","th":"359.9013158","sar":"4.109232708","classification":"C3S1","rsc__meq___l":"-0.198026316","classification1":"P.S."},{"sno":"202","district":"NALGONDA","mandal":"K.Mallepally","village":"K.Mallepally","temp_id":"1466","long_gis":"78.981033","lat_gis":"16.729392","gwl":"8.72","season":"Pre-monsoon 2020","ph":"8.6","ec":"410","tds":"262.4","co3":"20","hco3":"120","cl":"50","f":"0.28","no3":"2.515672","so4":"13","na":"38.96","k":"2.6","ca":"40","mg":"9.724","th":"139.9835526","sar":"1.431701917","classification":"C2S1","rsc__meq___l":"0.000328947","classification1":"P.S."},{"sno":"203","district":"NALGONDA","mandal":"kanagala","village":"kanagala","temp_id":"1467","long_gis":"79.198425","lat_gis":"16.937341","gwl":"5.15","season":"Pre-monsoon 2020","ph":"8.13","ec":"924","tds":"591.36","co3":"0","hco3":"250","cl":"120","f":"0.42","no3":"15.76724","so4":"23","na":"37.94","k":"1.71","ca":"80","mg":"43.758","th":"379.9259868","sar":"0.846291522","classification":"C3S1","rsc__meq___l":"-2.598519737","classification1":"P.S."},{"sno":"204","district":"NALGONDA","mandal":"Kattangur","village":"Cheruvu Annaram","temp_id":"1468","long_gis":"79.354249","lat_gis":"17.198652","gwl":"26.78","season":"Pre-monsoon 2020","ph":"8.13","ec":"2155","tds":"1379.2","co3":"0","hco3":"120","cl":"620","f":"0.26","no3":"33.57182","so4":"28","na":"88.18","k":"3.24","ca":"168","mg":"116.688","th":"899.8026316","sar":"1.278111166","classification":"C3S1","rsc__meq___l":"-15.59605263","classification1":"P.S."},{"sno":"205","district":"NALGONDA","mandal":"Kattangur","village":"Kattangur","temp_id":"1469","long_gis":"79.320303","lat_gis":"17.161891","gwl":"9.43","season":"Pre-monsoon 2020","ph":"7.46","ec":"2478","tds":"1585.92","co3":"0","hco3":"410","cl":"510","f":"1.31","no3":"43.62565","so4":"31","na":"319.4","k":"14.6","ca":"88","mg":"72.93","th":"519.8766447","sar":"6.090555739","classification":"C4S2","rsc__meq___l":"-2.197532895","classification1":"P.S."},{"sno":"207","district":"NALGONDA","mandal":"Munugode","village":"Kistapur","temp_id":"1482","long_gis":"79.017026","lat_gis":"17.156249","gwl":"9.38","season":"Pre-monsoon 2020","ph":"8.85","ec":"1956","tds":"1251.84","co3":"30","hco3":"390","cl":"350","f":"1.8","no3":"35.432","so4":"23","na":"323.8","k":"4.1","ca":"32","mg":"48.62","th":"279.9177632","sar":"8.414605869","classification":"C3S2","rsc__meq___l":"2.801644737","classification1":"U.S."},{"sno":"208","district":"NALGONDA","mandal":"Munugode","village":"Kompalli","temp_id":"1483","long_gis":"78.993715","lat_gis":"17.099308","gwl":"7.79","season":"Pre-monsoon 2020","ph":"8.22","ec":"1489","tds":"952.96","co3":"0","hco3":"180","cl":"330","f":"0.46","no3":"39.68384","so4":"37","na":"206","k":"26.7","ca":"64","mg":"24.31","th":"259.9588816","sar":"5.55503826","classification":"C3S1","rsc__meq___l":"-1.599177632","classification1":"P.S."},{"sno":"209","district":"NALGONDA","mandal":"Nakrekal","village":"Arlagaddagudam","temp_id":"1485","long_gis":"79.400636","lat_gis":"17.139111","gwl":"5.13","season":"Pre-monsoon 2020","ph":"8.65","ec":"1513","tds":"968.32","co3":"30","hco3":"200","cl":"330","f":"0.61","no3":"15.28005","so4":"20","na":"152.4","k":"4.6","ca":"40","mg":"72.93","th":"399.8766447","sar":"3.313554448","classification":"C3S1","rsc__meq___l":"-3.397532895","classification1":"P.S."},{"sno":"210","district":"NALGONDA","mandal":"Nakrekal","village":"Nakrekal","temp_id":"1486","long_gis":"79.420978","lat_gis":"17.159338","gwl":"7.38","season":"Pre-monsoon 2020","ph":"7.95","ec":"924","tds":"591.36","co3":"0","hco3":"230","cl":"150","f":"0.72","no3":"4.56187","so4":"15","na":"85.54","k":"4.17","ca":"64","mg":"29.172","th":"279.9506579","sar":"2.22280141","classification":"C3S1","rsc__meq___l":"-0.999013158","classification1":"P.S."},{"sno":"211","district":"NALGONDA","mandal":"Nakrekal","village":"Vallabhapur","temp_id":"1488","long_gis":"79.479895","lat_gis":"17.238945","gwl":"2.57","season":"Pre-monsoon 2020","ph":"8.1","ec":"1512","tds":"967.68","co3":"0","hco3":"90","cl":"340","f":"0.45","no3":"159.57687","so4":"19","na":"60.6","k":"4.66","ca":"176","mg":"38.896","th":"599.9342105","sar":"1.075704472","classification":"C3S1","rsc__meq___l":"-10.19868421","classification1":"P.S."},{"sno":"212","district":"NALGONDA","mandal":"Nalgonda","village":"Mushampally","temp_id":"1489","long_gis":"79.32478","lat_gis":"16.97492","gwl":"6.31","season":"Pre-monsoon 2020","ph":"8.06","ec":"1960","tds":"1254.4","co3":"0","hco3":"290","cl":"440","f":"0.75","no3":"32.42028","so4":"40","na":"119.35","k":"4.86","ca":"40","mg":"150.722","th":"719.7450658","sar":"1.934217192","classification":"C3S1","rsc__meq___l":"-8.594901316","classification1":"P.S."},{"sno":"213","district":"NALGONDA","mandal":"Nalgonda","village":"S L B C G V guda","temp_id":"1494","long_gis":"79.300907","lat_gis":"17.060183","gwl":"6.36","season":"Pre-monsoon 2020","ph":"8.18","ec":"1136","tds":"727.04","co3":"0","hco3":"120","cl":"280","f":"0.41","no3":"34.373469","so4":"20","na":"66.39","k":"1.71","ca":"96","mg":"43.758","th":"419.9259868","sar":"1.408602507","classification":"C3S1","rsc__meq___l":"-5.998519737","classification1":"P.S."},{"sno":"214","district":"NALGONDA","mandal":"Nalgonda","village":"Seetarampuram","temp_id":"1493","long_gis":"79.216751","lat_gis":"17.110312","gwl":"14.36","season":"Pre-monsoon 2020","ph":"7.75","ec":"1305","tds":"835.2","co3":"0","hco3":"310","cl":"220","f":"0.28","no3":"19.70905","so4":"18","na":"204","k":"13.2","ca":"56","mg":"14.586","th":"199.9753289","sar":"6.272116573","classification":"C3S2","rsc__meq___l":"2.200493421","classification1":"MR"},{"sno":"215","district":"NALGONDA","mandal":"Narketpalli","village":"Akkenepally","temp_id":"1496","long_gis":"79.235645","lat_gis":"17.290078","gwl":"3.88","season":"Pre-monsoon 2020","ph":"8.25","ec":"3189","tds":"2040.96","co3":"0","hco3":"400","cl":"760","f":"1.84","no3":"40.92396","so4":"39","na":"458.2","k":"17","ca":"88","mg":"87.516","th":"579.8519737","sar":"8.273107718","classification":"C4S2","rsc__meq___l":"-3.597039474","classification1":"P.S."},{"sno":"216","district":"NALGONDA","mandal":"Narketpalli","village":"Narketpalli","temp_id":"1497","long_gis":"79.191305","lat_gis":"17.20025","gwl":"16.79","season":"Pre-monsoon 2020","ph":"8.65","ec":"630","tds":"403.2","co3":"30","hco3":"180","cl":"40","f":"3.15","no3":"52.57223","so4":"10","na":"46.39","k":"8.72","ca":"32","mg":"34.034","th":"219.9424342","sar":"1.360009753","classification":"C2S1","rsc__meq___l":"-0.198848684","classification1":"P.S."},{"sno":"217","district":"NALGONDA","mandal":"Nidamanuru","village":"Nidamanur","temp_id":"1500","long_gis":"79.285277","lat_gis":"16.84","gwl":"5.89","season":"Pre-monsoon 2020","ph":"8.39","ec":"2223","tds":"1422.72","co3":"10","hco3":"500","cl":"270","f":"1.96","no3":"217.28674","so4":"37","na":"402.6","k":"3.4","ca":"64","mg":"19.448","th":"239.9671053","sar":"11.29978234","classification":"C3S3","rsc__meq___l":"5.400657895","classification1":"U.S."},{"sno":"218","district":"NALGONDA","mandal":"P.A Pally","village":"Angadipet","temp_id":"1502","long_gis":"79.084472","lat_gis":"16.716555","gwl":"6.07","season":"Pre-monsoon 2020","ph":"8.14","ec":"1604","tds":"1026.56","co3":"0","hco3":"140","cl":"320","f":"0.41","no3":"213.21206","so4":"36","na":"110","k":"9.88","ca":"88","mg":"82.654","th":"559.8601974","sar":"2.021273363","classification":"C3S1","rsc__meq___l":"-8.397203947","classification1":"P.S."},{"sno":"219","district":"NALGONDA","mandal":"Peddavoora","village":"Velmaguda","temp_id":"1506","long_gis":"79.18302","lat_gis":"16.77852","gwl":"6","season":"Pre-monsoon 2020","ph":"8.33","ec":"3121","tds":"1997.44","co3":"10","hco3":"370","cl":"670","f":"1.15","no3":"94.24912","so4":"96","na":"381.2","k":"63.3","ca":"56","mg":"121.55","th":"639.7944079","sar":"6.552466904","classification":"C4S2","rsc__meq___l":"-5.195888158","classification1":"P.S."},{"sno":"221","district":"NALGONDA","mandal":"Thiparthy","village":"Thipparthy","temp_id":"1512","long_gis":"79.418305","lat_gis":"17.01375","gwl":"3.94","season":"Pre-monsoon 2020","ph":"8.84","ec":"1023","tds":"654.72","co3":"30","hco3":"350","cl":"100","f":"1.38","no3":"4.429","so4":"12","na":"114.97","k":"8.64","ca":"24","mg":"53.482","th":"279.9095395","sar":"2.987774701","classification":"C3S1","rsc__meq___l":"2.001809211","classification1":"MR"},{"sno":"222","district":"NALGONDA","mandal":"Thiparthy","village":"Mamidala","temp_id":"1513","long_gis":"79.465001","lat_gis":"17.065212","gwl":"7.27","season":"Pre-monsoon 2020","ph":"8.7","ec":"487","tds":"311.68","co3":"30","hco3":"110","cl":"60","f":"0.42","no3":"5.257223","so4":"11","na":"45.24","k":"4.8","ca":"32","mg":"14.586","th":"139.9753289","sar":"1.662528167","classification":"C2S1","rsc__meq___l":"0.000493421","classification1":"P.S."},{"sno":"225","district":"NARAYANPET","mandal":"Maddur","village":"Maddur","temp_id":"1310","long_gis":"77.607","lat_gis":"16.857","gwl":"14.25","season":"Pre-monsoon 2020","ph":"8.87","ec":"1477","tds":"945.28","co3":"20","hco3":"570","cl":"90","f":"3.64","no3":"31.4459","so4":"26.68","na":"274.9","k":"3.3","ca":"40","mg":"19.448","th":"179.9671053","sar":"8.90943858","classification":"C3S2","rsc__meq___l":"8.200657895","classification1":"U.S."},{"sno":"226","district":"NARAYANPET","mandal":"Makthal","village":"Makthal","temp_id":"1314","long_gis":"77.500096","lat_gis":"16.500518","gwl":"10.56","season":"Pre-monsoon 2020","ph":"8.08","ec":"1244","tds":"796.16","co3":"0","hco3":"260","cl":"160","f":"0.2","no3":"138.6277","so4":"28.58","na":"90.35","k":"1.09","ca":"120","mg":"34.034","th":"439.9424342","sar":"1.872847408","classification":"C3S1","rsc__meq___l":"-3.598848684","classification1":"P.S."},{"sno":"227","district":"NARAYANPET","mandal":"Marikal","village":"Marikal","temp_id":"1315","long_gis":"77.698167","lat_gis":"16.592044","gwl":"16","season":"Pre-monsoon 2020","ph":"8.08","ec":"1941","tds":"1242.24","co3":"0","hco3":"240","cl":"400","f":"0.2","no3":"167.4162","so4":"32.83","na":"108.68","k":"4.42","ca":"128","mg":"106.964","th":"759.8190789","sar":"1.714220548","classification":"C3S1","rsc__meq___l":"-10.39638158","classification1":"P.S."},{"sno":"228","district":"NARAYANPET","mandal":"Narayanpet","village":"Kollampally","temp_id":"1319","long_gis":"77.616892","lat_gis":"16.667939","gwl":"9.27","season":"Pre-monsoon 2020","ph":"8.29","ec":"621","tds":"397.44","co3":"0","hco3":"180","cl":"70","f":"0.76","no3":"19.66476","so4":"11.1","na":"63.15","k":"0.49","ca":"40","mg":"19.448","th":"179.9671053","sar":"2.046675323","classification":"C2S1","rsc__meq___l":"0.000657895","classification1":"P.S."},{"sno":"229","district":"NARAYANPET","mandal":"Narayanpet","village":"Kotakonda","temp_id":"1320","long_gis":"77.637795","lat_gis":"16.754004","gwl":"5.22","season":"Pre-monsoon 2020","ph":"8.35","ec":"111","tds":"71.04","co3":"20","hco3":"20","cl":"20","f":"0.2","no3":"5.71341","so4":"5.95","na":"17","k":"0.2","ca":"8","mg":"4.862","th":"39.99177632","sar":"1.168787984","classification":"C1S1","rsc__meq___l":"0.000164474","classification1":"P.S."},{"sno":"230","district":"NARAYANPET","mandal":"Narayanpet","village":"Narayanapet","temp_id":"1321","long_gis":"77.4812","lat_gis":"16.7423","gwl":"12.39","season":"Pre-monsoon 2020","ph":"7.88","ec":"3553","tds":"2273.92","co3":"0","hco3":"270","cl":"630","f":"0.45","no3":"414.1115","so4":"107.29","na":"355.6","k":"44.4","ca":"144","mg":"106.964","th":"799.8190789","sar":"5.46686106","classification":"C4S2","rsc__meq___l":"-10.59638158","classification1":"P.S."},{"sno":"231","district":"NARAYANPET","mandal":"Narva","village":"Narva","temp_id":"1322","long_gis":"77.6567","lat_gis":"16.4706","gwl":"17.78","season":"Pre-monsoon 2020","ph":"7.76","ec":"1350","tds":"864","co3":"0","hco3":"230","cl":"230","f":"0.52","no3":"113.8253","so4":"25.85","na":"45.09","k":"1.87","ca":"216","mg":"14.586","th":"599.9753289","sar":"0.800360604","classification":"C3S1","rsc__meq___l":"-7.399506579","classification1":"P.S."},{"sno":"232","district":"NARAYANPET","mandal":"Utkoor","village":"Utkoor","temp_id":"1327","long_gis":"77.5003","lat_gis":"16.6407","gwl":"7.39","season":"Pre-monsoon 2020","ph":"7.89","ec":"2353","tds":"1505.92","co3":"0","hco3":"180","cl":"440","f":"0.39","no3":"297.6288","so4":"35","na":"155.7","k":"4.2","ca":"112","mg":"126.412","th":"799.7861842","sar":"2.393722642","classification":"C4S1","rsc__meq___l":"-12.39572368","classification1":"P.S."},{"sno":"233","district":"NARAYANPET","mandal":"Utkoor","village":"Chinnaporla","temp_id":"1326","long_gis":"77.516956","lat_gis":"16.581217","gwl":"8.24","season":"Pre-monsoon 2020","ph":"8.09","ec":"1553","tds":"993.92","co3":"0","hco3":"270","cl":"280","f":"0.45","no3":"25.2453","so4":"21.43","na":"206","k":"3.7","ca":"40","mg":"38.896","th":"259.9342105","sar":"5.555301875","classification":"C3S2","rsc__meq___l":"0.201315789","classification1":"P.S."},{"sno":"234","district":"NIRMAL","mandal":"Kadam","village":"Kadam","temp_id":"1523","long_gis":"78.775944","lat_gis":"19.096611","gwl":"4.7","season":"Pre-monsoon 2020","ph":"7.98","ec":"616","tds":"394.24","co3":"0","hco3":"220","cl":"80","f":"1.05","no3":"17.51468182","so4":"12.5","na":"47","k":"2","ca":"72","mg":"24.31","th":"279.9588816","sar":"1.221301518","classification":"C3S1","rsc__meq___l":"-1.199177632","classification1":"P.S."},{"sno":"235","district":"NIRMAL","mandal":"Khanapur","village":"Khanapur","temp_id":"1524","long_gis":"78.662131","lat_gis":"19.047089","gwl":"8.25","season":"Pre-monsoon 2020","ph":"7.99","ec":"848","tds":"542.72","co3":"0","hco3":"260","cl":"110","f":"1.31","no3":"44.08868182","so4":"18.5","na":"44","k":"3","ca":"80","mg":"48.62","th":"399.9177632","sar":"0.956620081","classification":"C3S1","rsc__meq___l":"-2.798355263","classification1":"P.S."},{"sno":"236","district":"NIRMAL","mandal":"Kubeer","village":"Kubeer","temp_id":"1525","long_gis":"77.945833","lat_gis":"19.2495","gwl":"8","season":"Pre-monsoon 2020","ph":"8.24","ec":"742","tds":"474.88","co3":"0","hco3":"200","cl":"80","f":"1.14","no3":"42.0755","so4":"31","na":"21","k":"1","ca":"64","mg":"48.62","th":"359.9177632","sar":"0.481271139","classification":"C2S1","rsc__meq___l":"-3.198355263","classification1":"P.S."},{"sno":"237","district":"NIRMAL","mandal":"Kuntala","village":"Kuntala","temp_id":"1526","long_gis":"78.1004","lat_gis":"19.1693","gwl":"16.2","season":"Pre-monsoon 2020","ph":"8.32","ec":"668","tds":"427.52","co3":"30","hco3":"90","cl":"170","f":"4.78","no3":"5.234272727","so4":"22.25","na":"141","k":"13","ca":"24","mg":"9.724","th":"99.98355263","sar":"6.130938992","classification":"C2S1","rsc__meq___l":"0.400328947","classification1":"P.S."},{"sno":"238","district":"NIRMAL","mandal":"Laxmanchanda","village":"Laxmanchanda","temp_id":"1527","long_gis":"78.460861","lat_gis":"19.017055","gwl":"2.9","season":"Pre-monsoon 2020","ph":"7.98","ec":"1177","tds":"753.28","co3":"0","hco3":"150","cl":"200","f":"1.05","no3":"43.48472727","so4":"98.5","na":"22","k":"2","ca":"72","mg":"97.24","th":"579.8355263","sar":"0.39723036","classification":"C3S1","rsc__meq___l":"-8.596710526","classification1":"P.S."},{"sno":"239","district":"NIRMAL","mandal":"Lokeswaram","village":"Abdullapur","temp_id":"1528","long_gis":"78.0378","lat_gis":"18.9703","gwl":"14.05","season":"Pre-monsoon 2020","ph":"8.09","ec":"788","tds":"504.32","co3":"0","hco3":"250","cl":"90","f":"0.31","no3":"32.61354545","so4":"15","na":"27","k":"2","ca":"48","mg":"63.206","th":"379.8930921","sar":"0.602289414","classification":"C3S1","rsc__meq___l":"-2.597861842","classification1":"P.S."},{"sno":"240","district":"NIRMAL","mandal":"Lokeswaram","village":"Lokeswaram","temp_id":"1529","long_gis":"78.0899","lat_gis":"19.0245","gwl":"15.4","season":"Pre-monsoon 2020","ph":"7.81","ec":"603","tds":"385.92","co3":"0","hco3":"170","cl":"110","f":"0.32","no3":"14.29359091","so4":"9","na":"47","k":"1","ca":"40","mg":"38.896","th":"259.9342105","sar":"1.267471787","classification":"C2S1","rsc__meq___l":"-1.798684211","classification1":"P.S."},